inegi_id,restaurant_name,restaurant_capacity,street_name,ext_number,int_number,coord_long,coord_lat,city
09016531210006012000000000U9,CASA OFELIA,6-10,ANATOLE FRANCE,129,0,-99.19750134,19.43271361,CDMX
09016722511000133001000000U9,RESTAURANTE MATISSE POLANCO,11-30,ANATOLE FRANCE,115,,-99.19753703,19.43199844,CDMX
09016722511003276001000000U3,LA CASA DEL PASTOR,0-5,ALFREDO DE MUSSET,3,,-99.19659798,19.43184196,CDMX
09016722219012443002000000U8,SNOB BISTRO,11-30,PRESIDENTE MASARYK,360,0,-99.19721163,19.43164989,CDMX
09016722219009382000000000U3,NAUTILUS,11-30,PRESIDENTE MASARYK,360,,-99.19721163,19.43164989,CDMX
09016722110002984001000000M4,KLEINS,6-10,PRESIDENTE MASARYK,360,2,-99.19733523,19.43165882,CDMX
09016722511003525000027772M3,SONORA GRILL,0-5,ALFREDO DE MUSSET,3,,-99.19644515,19.43172772,CDMX
09016722110004093000028189M2,MR SUSHI MASARYK,0-5,PRESIDENTE MASARYK,354,,-99.19636363,19.43158858,CDMX
09016722511005693000000000U7,LA UNICA,51-100,ANATOLE FRANCE,95,0,-99.19766744,19.43151976,CDMX
09016722511009471000000000U4,JAWA RESTAURANT DE INDONESIA,0-5,ALEJANDRO DUMAS,125,6,-99.19569474,19.43202775,CDMX
09016722516001661000000000M7,PASTA DE ZERO,0-5,ALEJANDRO DUMAS,125,910,-99.19568986,19.43202760,CDMX
09016722511009591000000000U9,PIZZA TONDA,0-5,ALEJANDRO DUMAS,125,2,-99.19568986,19.43202760,CDMX
09016722310000491000000000U8,QUERIDA COMIDA,0-5,ALEJANDRO DUMAS,125,1,-99.19568986,19.43202760,CDMX
09016722511002945002000000U4,RESTAURANTE EL CAMBALACHE POLANCO,0-5,ALEJANDRO DUMAS,122,0,-99.19577579,19.43181949,CDMX
09016722110001073000021918S7,SUSHI ROLL POLANQUITO,0-5,OSCAR WILDE,20,,-99.19756372,19.43112533,CDMX
09016722219012193001000000U9,EL POLANQUITO,6-10,OSCAR WILDE,9,10,-99.19734447,19.43105371,CDMX
09016722514007641000000000U8,PUESTO DE TORTAS,0-5,ALEJANDRO DUMAS,0,,-99.19563839,19.43356715,CDMX
09016722511001603000070652M6,RESTAURANTE DE PIZZAS,31-50,JULIO VERNE,112,27,-99.19599858,19.43124570,CDMX
09016722511003151001000000U8,TULIA,0-5,ANATOLE FRANCE,20,,-99.19762582,19.43104761,CDMX
09016722511003565001000000M9,FOGO DE CHAO CHURRASCARIA,11-30,ALEJANDRO DUMAS,105,0,-99.19576741,19.43133968,CDMX
09016722512000792000000000U0,RESTAURANT COMIDA GRIEGA LA OUZERIA,11-30,JULIO VERNE,92,0,-99.19603214,19.43097685,CDMX
09016722511006751000039698S2,LE PAIN QUOTIDIEN POLANCO,0-5,OSCAR WILDE,30,,-99.19736774,19.43075738,CDMX
09016722511010143000000000U6,RESTAURANTE JAPONEZ KAI,11-30,Anatole France,20,,-99.19766188,19.43080389,CDMX
09016722511001414000000000U2,PORTER STEAK HOUSE & SEAFOOD CHICAGO S FINEST,0-5,JULIO VERNE,102,,-99.19630377,19.43080056,CDMX
09016722512001312000000000M6,RESTAURANTE DEL MAR SINALOENSE,6-10,VIRGILIO,9,,-99.19672538,19.43064532,CDMX
09016722511007151000000000U0,RESTAURANTE PUJOL,0-5,ALFRED TENNYSON,133,0,-99.19492273,19.43244649,CDMX
09016722512001522000000000S0,RESTAURANTE DEL MAR SINALOENSE,6-10,Julio Verne,93,,-99.19621860,19.43075121,CDMX
09016722511008125000000000U7,RESTAURANTE SLIDERS,51-100,VIRGILIO,0,,-99.19665868,19.43062610,CDMX
09016722512001383000000000U7,MARISQUERIA EL GOLFO,11-30,VIRGILIO,90,,-99.19686111,19.43058432,CDMX
09016722511007755000024076S2,RESTAURANTE LAMPUGA,0-5,ANATOLE FRANCE,78,,-99.19782609,19.43072026,CDMX
09016722511004385001024076S1,RESTAURANTE PROSECCO POLANCO,0-5,ANATOLE FRANCE,7,,-99.19768478,19.43064911,CDMX
09016722511007346000000000U0,RESTAURANTE ANIMAL,0-5,PEDRO CALDERÓN DE LA BARCA,108,5,-99.19912342,19.43213867,CDMX
09016722511004335001024076S6,RESTAURANTE SYLVESTRE POLANCO,0-5,ANATOLE FRANCE,74,,-99.19783743,19.43066309,CDMX
09016722511007493000000000U0,RESTAURANTE COMIDA FRANCESA PARIS MEXICO ALEJANDRO DUMAS,31-50,JULIO VERNE,93,,-99.19635161,19.43056964,CDMX
09016722110002213000000000U8,BELLO PUERTO,11-30,JULIO VERNE,,0,-99.19648082,19.43041929,CDMX
09016722511004963000000000U5,SUSHI BATTA,6-10,JULIO VERNE,90,0,-99.19660732,19.43039551,CDMX
09016722517001832000000000U2,PIZZA ROCO SIMONA,6-10,OSCAR WILDE,8,,-99.19718982,19.43035217,CDMX
09016722511003505001000000U5,CATAMUNDI,31-50,ALEJANDRO DUMAS,97,0,-99.19585196,19.43061654,CDMX
09016722511001473000000000U8,LIMANTOUR,11-30,OSCAR WILDE,9,,-99.19705392,19.43032370,CDMX
09016722511005712000000000U5,BASICO RESTAURANT,11-30,OSCAR WILDE,8,,-99.19717442,19.43030887,CDMX
09016722110001913001000000U4,BISTRO BEC RESTAURANTE,11-30,VIRGILIO,8,,-99.19768116,19.43036481,CDMX
09016722511001723001000000U6,BRASSI RESTAURANTE,31-50,VIRGILIO,8,0,-99.19768116,19.43036481,CDMX
09016722511001593001000000U3,BUTCHER AND SONS POLANCO,11-30,OSCAR WILDE,8,,-99.19716087,19.43027075,CDMX
09016722511004485001024076S9,RESTAURANTE NOBU POLANCO,0-5,ANATOLE FRANCE,74,,-99.19788849,19.43040587,CDMX
09016722110003385001000000M3,RESTAURANTE TORI TORI,11-30,VIRGILIO,71,,-99.19771443,19.43033279,CDMX
09016722110002063001000000U7,NON SOLO PASTA,6-10,JULIO VERNE,89,,-99.19659442,19.43025221,CDMX
09016722517002661000000000U4,FABIANAS PIZZA,0-5,Oscar Wilde,8,0,-99.19713582,19.43020030,CDMX
09016722511005633000000000U3,RESTAURANTE DON PLING,11-30,ANATOLE FRANCE,70,0,-99.19790738,19.43031070,CDMX
09016722511008153000000000U9,RESTAURANTE LA SOTO MAYOR,11-30,ANATOLE FRANCE,70,,-99.19790738,19.43031070,CDMX
09016722511009782000000000U4,RESTAURANTE LA OTILIA,6-10,JUAN DE LAFONTAINE,78,,-99.19858188,19.43063028,CDMX
09016722511006483000000000U2,RESTAURANTE ATIPICO,6-10,OSCAR WILDE,9,0,-99.19696394,19.43012209,CDMX
09016722219009242000000000U9,PACIFICA,31-50,ALEJANDRO DUMAS,77,0,-99.19588998,19.43029125,CDMX
09016722512000994000000000U2,VILLA RICA RESTAURANT,11-30,VIRGILIO,93,,-99.19605862,19.43015742,CDMX
09016722511006523000000000U5,L ENTRECOT,11-30,EMILIO CASTELAR,121,,-99.19745513,19.42998341,CDMX
09016722110002253000000000U4,RESTAURANTE CASA PORTUGUESA,31-50,EMILIO CASTELAR,121,0,-99.19745513,19.42998341,CDMX
09016722511004803000000000U3,MORA MORA,31-50,EDGAR ALLAN POE,94,,-99.19983253,19.43276591,CDMX
09016722516001351000000000U5,RESTAURANTE LA POLANQUEÑA,11-30,ALEJANDRO DUMAS,71,,-99.19591429,19.43008336,CDMX
09016722511003311001000000U8,COMEDOR JACINTA,31-50,VIRGILIO,40,,-99.19613933,19.42998019,CDMX
09016722511004813000000000U2,EMILIO RESTAURANTE,31-50,EMILIO CASTELAR,107,,-99.19649360,19.42986974,CDMX
09016722219007481001000000U5,RESTAURANTE FRANCESA IVOIRE,31-50,EMILIO CASTELAR,107,,-99.19649360,19.42986974,CDMX
09016722511010133000000000U7,KARPOS,11-30,Emilio Castelar,135,,-99.19825539,19.43009651,CDMX
09016722511002304001000000M4,RESTAURANTE MANDOLINA,51-100,EMILIO CASTELAR,135,,-99.19825540,19.43009651,CDMX
09016722511002473002000000S7,RESTAURANTE EL JAPONEZ,11-30,EMILIO CASTELAR,135,,-99.19825540,19.43009651,CDMX
09016722219012253001002870S1,50 FRIENDS POLANCO,0-5,EMILIO CASTELAR,95,,-99.19640014,19.42985895,CDMX
09016722110001063000000000U8,SPUNTINO,11-30,ALEJANDRO DUMAS,95,0,-99.19614276,19.42987831,CDMX
09016722516001503000050948S1,THE FOOD BOX,11-30,EUGENIO SUE,311,,-99.19419168,19.43160101,CDMX
09016722511008203000000000U2,CASA OPENMINDER,11-30,EUGENIO SUE,311,,-99.19419168,19.43160101,CDMX
09016722511007955000000000S8,RESTAURANTE ILIOS POLANCO,51-100,EUGENIO SUE,311,3,-99.19419168,19.43160101,CDMX
09016722511004703000000000U5,GIN GIN KITCHEN BAR,11-30,PEDRO CALDERON DE LA BARCA,78,1,-99.19928100,19.43058026,CDMX
09016722511004833000000000U0,MANATAW RESTAURANTE,11-30,EMILIO CASTELAR,149,,-99.19882679,19.43018002,CDMX
09016722511010213000000000U7,ISOLA RISTORANTE ITALIANO,11-30,EMILIO CASTELAR,149,,-99.19882679,19.43018002,CDMX
09016722219012173001000000U1,RESTAURANTE COMIDA ESPAÑOLA LA MALLORQUINA,31-50,ALFRED TENNYSON,65,0,-99.19524486,19.43003438,CDMX
09016722511010203000000000U8,11 11 RESTAURANTE COMIDA INTERNACIONAL,11-30,PEDRO CALDERON DE LA BARCA,72,,-99.19930424,19.43040857,CDMX
09016722110003675001000000U7,L OSTERIA DEL BECCO,31-50,OLIVER GOLDSMITH,103,,-99.20053233,19.43219893,CDMX
09016722511001365002000000U6,LA BUENA BARRA MASARYK,0-5,ARISTOTELES,124,8,-99.19350985,19.43170905,CDMX
09016722511009653000000000U7,RESTAURANTE ITALIANO PAROLE,11-30,EMILIO CASTELAR,163,,-99.19970274,19.43030600,CDMX
09016722511000513000000000U2,BLANCO CASTELAR,51-100,EMILIO CASTELAR,163,163,-99.19970274,19.43030600,CDMX
09016722511009485000000000U4,CUERNO,51-100,ARISTOTELES,124,,-99.19351835,19.43162439,CDMX
09016722511008195000000000U0,COLMILLO MASARYK POLANCO,51-100,ARISTOTELES,124,,-99.19351835,19.43162439,CDMX
09016722212009082000000000U4,PIZZAPOLL,0-5,EDGAR ALLAN POE,185,0,-99.20005652,19.43072194,CDMX
09016722511008353000000000U5,RESTAURANTE ONA,11-30,EDGAR ALLAN POE,185,,-99.20006233,19.43068525,CDMX
09016722330000261000000000U3,RESTAURANTE FOOD Y WINE TABLE,0-5,EDGAR ALLAN POE,42,,-99.20007378,19.43061302,CDMX
09016722511007191000000000U0,RESTARANTE TABOO,11-30,PRESIDENTE MASARYK,298,,-99.19346288,19.43140835,CDMX
09016722511004843000000000U9,DANTE BRASA Y FUEGO,11-30,EDGAR ALLAN POE,41,,-99.20001426,19.43046745,CDMX
09016722511007355000000000U1,KYU MEXICO,0-5,OLIVER GOLDSMITH,66,,-99.20066813,19.43172455,CDMX
09016722511007315000000000U5,ROSA NEGRA,0-5,PRESIDENTE MASARYK,298,,-99.19341365,19.43140867,CDMX
09016722511007692000001355M7,ASADOR CASTELLANO,0-5,AVENIDA HOMERO,538,,-99.19517384,19.43581761,CDMX
09016722511010301000038132S0,NORESTE GRILL SUCURSAL COMISARIATO CDMX,0-5,Juan De Lafontaine,121,,-99.19869710,19.42922653,CDMX
09016722511005033000000000U6,BARRA DE FRANK,11-30,EMILIO CASTELAR,195,0,-99.20052246,19.43079663,CDMX
09016722511009053000000000U0,VENTA DE COMIDA JAPONES IWASHI SUSHI,11-30,EMILIO CASTELAR,204,,-99.20092224,19.43097379,CDMX
09016722514008291000000000U1,TAQUERIA CASTELAR,0-5,Emilio Castelar,215,,-99.20103704,19.43124284,CDMX
09016722512001452000000000U0,EL ARRIMON,6-10,EMILIO CASTELAR,204,,-99.20106777,19.43111694,CDMX
09016722219008581000000000U1,TAQUERIA EL TURIX,11-30,EMILIO CASTELAR,208,0,-99.20122465,19.43125845,CDMX
09016722511008983000000000U9,CAFETERIA BANDIDO,11-30,EMILIO CASTELAR,208,,-99.20124110,19.43126061,CDMX
09016722511004974000000000U2,ARTURO S RESTAURANT,6-10,EMILIO CASTELAR,227,2,-99.20135732,19.43152755,CDMX
09016465112002131000000000U9,RESTAURANTE CHAMBAO FASHION GRILL HOUSE,11-30,PRESIDENTE MASARYK,430,,-99.20154965,19.43203176,CDMX
09016722511009044000000000U9,CENTANNI RISTORANTE VIVO Y TERRAZA,31-50,JULIO VERNE,38,,-99.19729438,19.42825061,CDMX
09016722219009982000000000U0,RESTAURANTE MYTHOS,11-30,ISAAC NEWTON,7,3,-99.19332621,19.42972811,CDMX
09016722511001193001000000U2,RESTAURANTE EL CHANCLAS,6-10,ISAAC NEWTON,18,,-99.19304944,19.43007397,CDMX
09016722511009563000000000U8,RESTAURANTE EKILORE,11-30,ARISTOTELES,239,,-99.19312484,19.43534153,CDMX
09016722511003146002000000U8,LA LOGGIA,11-30,EMILIO CASTELAR,44,,-99.19363033,19.42930714,CDMX
09016722511005702000000000U6,BARRITA DE MAR,11-30,LUIS GONZAGA URBINA,4,0,-99.19438601,19.42873255,CDMX
09016722110001933000000000U2,RESTAURANTE LA ACEITUNA,31-50,LUIS GONZAGA URBINA,4,,-99.19433907,19.42872624,CDMX
09016722110004006000000000U4,ESTORIL POLANCO,0-5,ALEJANDRO DUMAS,24,,-99.19640847,19.42794774,CDMX
09016722110001133000000000U9,PUBBELLY SUSHI,0-5,PRESIDENTE MASARYK,275,,-99.19217587,19.43154540,CDMX
09016722512001431000000000U4,MARISQUERIA EL ARRIMON,0-5,ENRIQUE IBSEN,43,,-99.20154120,19.43045015,CDMX
09016722511003933001002870M9,RELACIONES GASTRONOMICAS,0-5,PEDRO CALDERÓN DE LA BARCA,27,,-99.19955665,19.42834765,CDMX
09016722511001083000000000U5,RESTAURANTE ROMINA,11-30,HOMERO,714,,-99.19288033,19.43556489,CDMX
09016722511009851000000000U7,SERVICIO DE RESTAURANTE TAPAS TOGO,0-5,ISAAC NEWTON,35,,-99.19227010,19.43053498,CDMX
09016722511004025001000000U3,PRENDES,0-5,MOLIERE,222,,-99.20155955,19.43509627,CDMX
09016722511007293000000000U4,FRATELLI LA FUBALA,11-30,GALILEO,31,0,-99.19302463,19.42932263,CDMX
09016722511008813000000000U8,RESTAURANTE MAISON BELEM,11-30,GALILEO,31,,-99.19302463,19.42932263,CDMX
09016722515008373000000000S4,RESTAURANTE FOUGASSE,11-30,EMILIO CASTELAR,34,,-99.19299155,19.42921903,CDMX
09016722515008641000000000U4,RESTAURANTE RICHEESE,0-5,ISAAC NEWTON,53,,-99.19196117,19.43079429,CDMX
09016722517001931000054572S2,PAPA JOHNS,0-5,MOLIERE,237,,-99.20123158,19.43576281,CDMX
09016722110003986001000000U8,RESTAURANTE VILLA MARIA,31-50,HOMERO,704,0,-99.19260348,19.43555351,CDMX
09004722511000765100004193S4,RESTAURANTE EL BAJIO COCINA MEXICANA,0-5,ALEJANDRO DUMAS,7,,-99.19636062,19.42751514,CDMX
09016722511003196002000000U3,RESTAURANTE TORI TORI,0-5,TEMISTOCLES,61,,-99.19211957,19.43040444,CDMX
09016722511008233000000000U9,RESTAURANTE ULTRAMARINOS,11-30,CHARLES DICKENS,33,,-99.20178703,19.43020927,CDMX
09016722110001623000000000U9,SERVICIOS DE COMEDOR GRUPO MEXICO,6-10,ENRIQUE IBSEN,15,0,-99.20171253,19.42990951,CDMX
09016541510005331000000000U5,TECNOLOGIA PARA RESTAURANTE POLO PAY,0-5,CAMPOS ELISEOS,345,,-99.19996108,19.42818410,CDMX
09016722219010772000000000U2,LA POSTRERIA RESTAURANTE,6-10,ALEJANDRO DUMAS,359,0,-99.19542918,19.43765008,CDMX
09016722514000481000000000U6,LA ESPAÑOLA,0-5,ALEJANDRO DUMAS,359,0,-99.19542918,19.43765008,CDMX
09016722110001563000000000U7,RESTAURANTE TAKOS TAKOS,11-30,CAMPOS ELISEOS,8,0,-99.20053585,19.42853824,CDMX
09016722511003063000000000U5,RESTAURANTE QUINTONIL,31-50,ISAAC NEWTON,57,,-99.19171208,19.43099130,CDMX
09016722212009032000000000S9,TOMMY PIZZA,6-10,PRESIDENTE MASARYK,249,,-99.19145856,19.43167612,CDMX
09016722511007264000000000U5,CAMPOMAR,0-5,ISAAC NEWTON,62,,-99.19151481,19.43135225,CDMX
09016722516001821000000000U7,COMIDA JAPONESA SUSHI BAR,0-5,TEMISTOCLES,34,,-99.19229300,19.42961727,CDMX
09016722511007843000000000U6,DAWAT,11-30,EJERCITO NACIONAL MEXICANO,676,,-99.19668967,19.43797136,CDMX
09016722110003234001000000U3,PREGO RISTORANTE,11-30,ALEJANDRO DUMAS,4,0,-99.19660765,19.42720685,CDMX
09016722516001901000000000U7,WING STOP,0-5,PRESIDENTE MASARYK,249,,-99.19136487,19.43178624,CDMX
09016722219008882000000000U3,RESTAURANTE LA HALLACA,11-30,EJERCITO NACIONAL MEXICANO,646,0,-99.19567804,19.43792535,CDMX
09016722511008224000000000U8,PRIME WINE,31-50,CAMPOS ELISEOS,223,,-99.19439918,19.42769242,CDMX
09016722110001893001000000U8,GAUCHO GRILL,11-30,TEMISTOCLES,37,,-99.19224787,19.42940785,CDMX
09016722511004743000000000U1,MAKOTO,31-50,CAMPOS ELISEOS,295,,-99.19681206,19.42707840,CDMX
09016722511009433000000000U4,RESTAURANTE SUVAI,11-30,CAMPOS ELISEOS,295,,-99.19681206,19.42707840,CDMX
09016722110002954000000000S7,LA CASA DE LOS ABUELOS,11-30,MOLIERE,325,,-99.20108049,19.43655833,CDMX
09016722110003605001000000U4,KARISMA RESTAURANTE BAR,11-30,CAMPOS ELISEOS,219,1,-99.19370223,19.42803001,CDMX
09016722518000131000000000U8,DE HARINA,6-10,EJERCITO NACIONAL MEXICANO,624,0,-99.19511507,19.43790257,CDMX
09016722511003851000000000U3,GIORNALE,6-10,EJERCITO NACIONAL MEXICANO,622,0,-99.19507689,19.43790145,CDMX
09016722110003515001000000U5,RESTAURANTE CASTILLOS DE ESPAÑA,31-50,EJERCITO NACIONAL MEXICANO,617,0,-99.19596754,19.43824633,CDMX
09016722219011452000000000U0,EL REFILON,6-10,MOLIERE,330,0,-99.20126022,19.43674312,CDMX
09016722110003996000003022M7,AU PIED DE COCHON,0-5,CAMPOS ELÍSEOS,218,,-99.19358459,19.42777837,CDMX
09016722511004284001003022S6,ALFREDO DI ROMA ,0-5,CAMPOS ELÍSEOS,218,,-99.19357525,19.42778006,CDMX
09016722110003274001003022S9,EL CHAPULIN,0-5,CAMPOS ELÍSEOS,218,,-99.19356076,19.42778267,CDMX
09016722110003775000003022S5,THE PALM,0-5,CAMPOS ELÍSEOS (AVENIDA EJERCITO NACIONAL),218,,-99.19356011,19.42778278,CDMX
09016722514000731000000000U4,TORTAS Y TACOS DON CUCO,0-5,EJERCITO NACIONAL MEXICANO,,,-99.19536636,19.43821669,CDMX
09016722511007773000003022S5,TOKOYA,0-5,CAMPOS ELÍSEOS,218,,-99.19353916,19.42778656,CDMX
09016722517002561000000000S6,BUDDHA CHICKEN,0-5,ARQUIMEDES,130,10,-99.19094385,19.43369696,CDMX
09016722110003966002000000U0,LOS BISQUETS BISQUETS OBREGÓN,0-5,MOLIERE,337,0,-99.20099775,19.43707007,CDMX
09016722110002093001000000U4,QUESADILLAS Y ANTOJITOS MARIA ISABEL,11-30,EMILIO CASTELAR,14,,-99.19202000,19.42909219,CDMX
09016722511002063001000000U6,MAN XIAN GE,6-10,MOLIERE,313,0,-99.20098997,19.43711815,CDMX
09016722514000871000000000U8,ANTOJITOS GABY,0-5,EJERCITO NACIONAL MEXICANO,0,0,-99.19498478,19.43819838,CDMX
09016722514000092001000000U1,BURRITOS MEXICO,6-10,ISAAC NEWTON,76,,-99.19079116,19.43182081,CDMX
09016722511003841000000000U4,COMA PIZZA,6-10,HORACIO,544,554,-99.19076559,19.43340437,CDMX
09016722514002111000000000U7,ANTONJITOS MEXICANOS,0-5,EJERCITO NACIONAL MEXICANO,,,-99.19475575,19.43819058,CDMX
09016722219008641001000000U3,TIC TAC CAFETERIA,6-10,MOLIERE,340,0,-99.20119086,19.43714003,CDMX
09016722511010323000000000U4,SENDERO,11-30,ANDRES BELLO,29,0,-99.19500870,19.42685126,CDMX
09016722511003263000000000U1,JASO BAKERY,6-10,ISAAC NEWTON,88,,-99.19065441,19.43193539,CDMX
09016722511007523000000000U4,RESTAURANTE CHANG AN,11-30,PLATON,515,,-99.20340155,19.43239702,CDMX
09016722514000013000003743S7,EL TIZONCITO,0-5,MOLIERE,335,,-99.20093291,19.43747120,CDMX
09016722110002273000000000U2,RESTAURANTE AGUA Y SAL,11-30,CAMPOS ELISEOS,199,,-99.19266433,19.42804108,CDMX
09016722511010173000000000U3,RESTAURANTE BARTOLA POLANCO,11-30,ARQUIMEDES,31,,-99.19145531,19.42940208,CDMX
09016722518000041000000000U9,TUUX KABIN COCHINITA PIBIL,0-5,ISAAC NEWTON,82,,-99.19053304,19.43203708,CDMX
09016722219007631000000000U5,PARRILLADA ZURICH,0-5,MOLIERE,340,0,-99.20127980,19.43726272,CDMX
09016722514007551000000000U9,TACOS DE GUISADO SIN NOMBRE,0-5,HESIODO,546,,-99.19069227,19.43420827,CDMX
09016722219000391000000000U3,LONCHERIA IZTA,0-5,HESIODO,546,0,-99.19069227,19.43420827,CDMX
09016722514005731000000000U9,SUPER TORTAS,0-5,HESIODO,546,0,-99.19069227,19.43420827,CDMX
09016722514005741000000000U8,TAQUERIA LOS CUÑADOS,0-5,HESIODO,546,0,-99.19069227,19.43420827,CDMX
09016722110002623001000000S8,LA PARRILLA SUIZA,6-10,MOLIERE,340,,-99.20115127,19.43741175,CDMX
09016722513005282000000000U5,QUESADILLAS SRA. ASCENCIO,6-10,MOLIERE,340,,-99.20135557,19.43726997,CDMX
09016722511009364000000000U1,RESTAURANTE DE COMIDA ITALIANA BELFIORE,31-50,PRESIDENTE MASARYK,514,,-99.20362866,19.43218868,CDMX
09016722513001171000000000U4,FLAUTAS MEXICO,0-5,ISAAC NEWTON,0,,-99.19037255,19.43207304,CDMX
09016722511003182001000000U3,EL S3CR3TO,6-10,HERACLITO,309,,-99.19033634,19.43298873,CDMX
09016722511007652000053993S1,POLANCO,0-5,HOMERO,1329,,-99.20253578,19.43615857,CDMX
09016722517001322000000000U4,HAMBURGUESAS HM,6-10,LUCIO ANNEO SENECA,1329,,-99.20246435,19.43631257,CDMX
09016722219011982000000000U6,TORTAS LA CASTAÑEDA,6-10,LUCIO ANNEO SENECA,1329,0,-99.20246435,19.43631257,CDMX
09016722517000191001073937S4,HAMBURGUESAS HM HOMERO,0-5,LUCIO ANNEO SENECA,1329,0,-99.20246435,19.43631257,CDMX
09016722412001027000000000U3,TWIN PEAKS MIYANA,0-5,EJERCITO NACIONAL,769,,-99.19969927,19.43844565,CDMX
09016722511006781000039698S9,LE PAIN QUOTIDIEN MOLIERE,0-5,EJÉRCITO NACIONAL MEXICANO,769,,-99.19970165,19.43844579,CDMX
09016722511005231000000000U6,TACOS DON MANOLITO,6-10,ISAAC NEWTON,95,0,-99.19024698,19.43218032,CDMX
09016722514006512000000000U2,TORTAS EL ZARAPE,0-5,ISAAC NEWTON,95,0,-99.19024488,19.43217802,CDMX
09016722511005073000000000U2,KAZUS KITCHEN,11-30,ISAAC NEWTON,95,,-99.19024488,19.43217802,CDMX
09016722219009082001000000U9,EL ZARAPE TAQUERIA,6-10,ISAAC NEWTON,95,0,-99.19024488,19.43217802,CDMX
09016722511004195000004193S4,RESTAURANTE EL BAJIO COMIDA MEXICANA,0-5,EJÉRCITO NACIONAL MEXICANO,769,,-99.19979277,19.43845092,CDMX
09016722212002881011000000U6,MALIX,11-30,ISAAC NEWTON,114,,-99.19023652,19.43227176,CDMX
09016722110003004001000000U0,GUZINA OAXACA,31-50,PRESIDENTE MASARYK,515,3,-99.20376926,19.43234045,CDMX
09016722110000221001002563M3,TOKS,0-5,EJÉRCITO NACIONAL MEXICANO,769,,-99.19981713,19.43845230,CDMX
09016722511006701000039772S7,PORCO ROSSO MIYANA,0-5,EJÉRCITO NACIONAL MEXICANO,769,,-99.19983533,19.43845332,CDMX
09016722516001382000000000S0,RUBEN S HAMBURGERS,11-30,ISAAC NEWTON,93,0,-99.19021913,19.43219919,CDMX
09016722511003921001002563S4,TOKS,0-5,EJÉRCITO NACIONAL MEXICANO,769,,-99.19984387,19.43845380,CDMX
09016722517001793000000000S6,REBEL WINGS,6-10,HOMERO,0,,-99.20267795,19.43616613,CDMX
09016722511004475000003437S0,HOOTERS POLANCO,0-5,MOLIERE,353,,-99.20085900,19.43792828,CDMX
09016722511005732000000000U3,EL HUARACHE DE NEWTON,6-10,ISAAC NEWTON,104,,-99.19018579,19.43231395,CDMX
09016722512001371000000000U2,INCHE CEVICHE,0-5,MOLIERE,352,352,-99.20108251,19.43783605,CDMX
09016722511008411000000000U1,LA VENCEDORA,0-5,ISAAC NEWTON,104,0,-99.19010946,19.43237741,CDMX
09016722219009392001000000U2,RESTAURANTE EL TUKAN,6-10,ISAAC NEWTON,104,0,-99.19008917,19.43239429,CDMX
09016722517002311000000000U6,POLLOS ELIAS,0-5,HOMERO,182,,-99.19087291,19.43564183,CDMX
09016722514004941000000000U5,ROSY TACOS DE GUISADO,0-5,LAGO VICTORIA,0,,-99.19382216,19.43842681,CDMX
09016722516001861000061238S3,HAMBURGUESAS HM HOMERO,0-5,Homero,1329,,-99.20280539,19.43617292,CDMX
09016722511004944000000000U5,MOLIERE 321,31-50,MOLIERE,353,0,-99.20083517,19.43807568,CDMX
09016722110002884000063368M6,PORFIRIO S RESTAURANTE,0-5,PRESIDENTE MASARYK,214,,-99.19017878,19.43140096,CDMX
09016722514004471000000000U3,TORTAS MOLIERE,0-5,EJERCITO NACIONAL MEXICANO,0,,-99.20075535,19.43815195,CDMX
09016722511007663000003437S8,HOOTERS ANTARA,0-5,EJÉRCITO NACIONAL MEXICANO,352,,-99.20077743,19.43815279,CDMX
09016722110000842011000000U6,RESTAURANTE PANTOMATO,6-10,HOMERO,1333,0,-99.20286888,19.43617631,CDMX
09016722514006743000000000U3,TACOS NENE,11-30,MOLIERE,353,,-99.20082493,19.43813901,CDMX
09016722514000811000000000U4,TAQUERIA LA ESPAÑOLITA,0-5,LAGO VICTORIA,0,,-99.19381355,19.43853505,CDMX
09016722516001551000000000U0,MONTERREY BURGERS,0-5,HOMERO,1337,,-99.20292605,19.43617936,CDMX
09016722219002681001000000U5,VENECIANO,6-10,MOLIERE,350,0,-99.20104290,19.43808045,CDMX
09016722511005821000000000U4,COMEDOR BONITO SAZON,0-5,ARQUIMEDES,182,0,-99.19072005,19.43574075,CDMX
09016722512000621000000000U1,MARISQUERIA EL JAROCHO,0-5,LAGO VICTORIA,,,-99.19380417,19.43865283,CDMX
09016722511000553002028181S8,MOSHI MIYANA,0-5,EJERCITO NACIONAL MEXICANO,769,,-99.20055388,19.43849384,CDMX
09016722511006353000000000U7,TAYPA,11-30,ISAAC NEWTON,116,,-99.18983506,19.43260559,CDMX
09016722513003081000000000U3,BIRRIA LOS HARANDAS,0-5,LAGO VICTORIA,,,-99.19379552,19.43876157,CDMX
09016722518004361000000000U7,LAS CAZUELAS DE POLANCO,0-5,LAGO TANGANICA,75,,-99.19296208,19.43840181,CDMX
09016722212007981000000000U9,LA FLOR DE SAN JUAN,0-5,LAMARTINE,518,0,-99.18966733,19.43282198,CDMX
09016722517002111000000000U0,MADE FOR YOU PIZZA,0-5,LAGO TANGANICA,75,,-99.19296117,19.43841990,CDMX
09016722219005331000000000U4,CALDOS DE POLLO Y SOPES LA NUEVA DE POLANCO,0-5,EJERCITO NACIONAL MEXICANO,816,0,-99.20149018,19.43818922,CDMX
09016722219010162000000000U6,CALDOS DE POLANCO,0-5,EJERCITO NACIONAL MEXICANO,816,0,-99.20149018,19.43818922,CDMX
09016722511003941001000000U2,ENO,11-30,HOMERO,534,1,-99.19017007,19.43543763,CDMX
09016722110002023011003403S1,EL FAROLITO POLANCO,0-5,NEWTON,130,,-99.18954015,19.43283013,CDMX
09016722518002591000000000U1,CHILAQUILENA ANTOJITO MEXICANO AGUA,0-5,LAGO VICTORIA,,,-99.19377539,19.43901465,CDMX
09016722511009112000000000U4,OFICINA ADMINISTRATIVA ANGUS,6-10,MONTE ELBRUZ,132,705,-99.20374954,19.42950583,CDMX
14039722511000044001003403S3,EL FAROLITO POLANCO,0-5,Isaac Newton,130,,-99.18946885,19.43288738,CDMX
09016722518002101010000000U9,SUSHI ZENZEY,0-5,LAGO VICTORIA,,,-99.19377032,19.43907829,CDMX
09016722511006363000000000S6,URBAN SPICE,11-30,HOMERO,1408,0,-99.20363573,19.43604597,CDMX
09016722211000411021003286S6,11003 POLANCO,0-5,HOMERO,1416,,-99.20369160,19.43604852,CDMX
09016722514003701000000000U4,TORTERIA LOS DOS GALLOS,0-5,LAGO VICTORIA,0,0,-99.19376530,19.43914144,CDMX
09016722514007561000000000U8,TACOS EL PAISA,0-5,LAGO BANGUEOLO,0,,-99.19214317,19.43817810,CDMX
09016722513001191000000000U2,EL HUARACHE EXPRESS,0-5,LAGO VICTORIA,0,,-99.19375952,19.43921410,CDMX
09016722219010732001000000U6,LOS MANJARES,6-10,TEMISTOCLES,526,0,-99.19131767,19.43761005,CDMX
09016722517001633000000000U4,ROSTICERIA CHICKEN POLLO POLANCO,0-5,HORACIO,513,,-99.18926392,19.43352746,CDMX
09016722514007732000000000M5,LA TORTUGA DE POLANCO,6-10,ISAAC NEWTON,136,,-99.18921362,19.43309231,CDMX
09016722514003621000000000U4,KEKAS LEO,0-5,LAGO VICTORIA,0,,-99.19375019,19.43933137,CDMX
09016722513001181000000000U3,EL GRINGO NACO,0-5,TEMISTOCLES,525,0,-99.19131227,19.43767315,CDMX
09016722219010052000000000U9,RESTAURANTE ARTURO,0-5,EJERCITO NACIONAL MEXICANO,526,0,-99.19132583,19.43775106,CDMX
09016722514000421000000000U2,TAQUERIA EL CUÑADO,0-5,LAGO VICTORIA,,,-99.19374010,19.43945816,CDMX
09016722219010702001000000U9,RESTAURANTE EMBERS,6-10,EJERCITO NACIONAL MEXICANO,840,,-99.20231088,19.43822518,CDMX
09016722516000401010000000U9,COMIDA YOLA,0-5,LAGO VICTORIA,0,0,-99.19373145,19.43956690,CDMX
09016722511008954000000000U0,TATEL MEXICO,31-50,PRESIDENTE MASARYK,183,,-99.18901919,19.43150402,CDMX
09016722110003304001000000U4,SAKS POLANCO,0-5,CAMPOS ELÍSEOS,133,,-99.18953656,19.42939288,CDMX
09016722513005481000000000U3,COMIDAS Y ANTOJITOS CATALINA,0-5,PASEO DE LA REFORMA,0,,-99.19285393,19.42575662,CDMX
09016722514006274000000000S9,TAQUERIA TAQUEARTE,11-30,HOMERO,511,,-99.18923075,19.43558617,CDMX
09016722511004322000028181S4,MOSHI ANTARA,0-5,EJERCITO NACIONAL MEXICANO,843,,-99.20253676,19.43857433,CDMX
09016722514007901000000000U6,PREPARACION DE COMIDA DEYSY,0-5,PASEO DE LA REFORMA,0,,-99.19272250,19.42572822,CDMX
09016722511010253000000000U3,RESTAURANTE SEÑORA TANAKA,11-30,PRESIDENTE MASARYK,169,,-99.18866591,19.43149735,CDMX
09016722511007602000021918S6,SUSHIROLL ANTARA,0-5,EJÉRCITO NACIONAL MEXICANO,843,,-99.20257959,19.43857656,CDMX
09016722211000151002004093S8,SUC KFC 543 POLANCO,0-5,ARQUÍMEDES,235,,-99.19043423,19.43760383,CDMX
09016722514008121000000000U0,TACOS VICTORIA,0-5,LAGO VICTORIA,0,,-99.19370640,19.43997436,CDMX
09016722513005472000000000U2,TACOS AUDITORIO,6-10,PASEO DE LA REFORMA,0,,-99.19265490,19.42571361,CDMX
09016722110001543000000000U9,SANTINO,11-30,PRESIDENTE MASARYK,178,0,-99.18864023,19.43136071,CDMX
09016722513005771000000000U7,PUESTO DE ANTOJITOS MEXICANOS AUDITORIO,0-5,PASEO DE LA REFORMA,0,,-99.19264578,19.42571163,CDMX
09016722513005151000000000U2,PUESTO DE ANTOJITOS MEXICANOS CRISTINA,0-5,PASEO DE LA REFORMA,0,,-99.19261844,19.42570572,CDMX
09016722514007911000000000U5,TACOS DE CARNITAS SILVER,0-5,PASEO DE LA REFORMA,0,,-99.19261844,19.42570572,CDMX
09016722514007711000000000U9,PUESTO DE DESAYUNOS GREEN BOX,0-5,PASEO DE LA REFORMA,0,,-99.19259831,19.42570137,CDMX
09016722517001341011028213S4,CARLS JR ANTARA,0-5,EJÉRCITO NACIONAL MEXICANO,843,,-99.20271285,19.43858349,CDMX
09016722513005781000000000U6,ANTOJITOS MEXICANOS SIN NOMBRE,0-5,PASEO DE LA REFORMA,0,,-99.19255084,19.42569111,CDMX
09016722511005801000000000U6,EL KAFTA,0-5,EMERSON,220,,-99.18876838,19.43475357,CDMX
09016311910000081010000000U1,PUESTO DE ANTOJITOS MEXICANOS LA BENDICION,6-10,PASEO DE LA REFORMA,0,,-99.19248324,19.42567650,CDMX
09016722513005791000000000U5,TACOS DE CARNITAS SILVER,0-5,PASEO DE LA REFORMA,0,,-99.19247412,19.42567453,CDMX
09016722511000113001003408S1,ARRACHERA HOUSE ANTARA,0-5,EJERCITO NACIONAL MEXICANO,843,,-99.20282700,19.43858943,CDMX
09016722514007541000000000U0,PUESTO DE DESAYUNOS AUDITORIO,0-5,PASEO DE LA REFORMA,0,,-99.19246311,19.42567215,CDMX
09016722110003976000000000U9,RINCON ARGENTINO,0-5,PRESIDENTE MASARYK,177,,-99.18848149,19.43149388,CDMX
09016722517002601000000000U0,HAMBURGUESAS Y HOT DOGS SIN NOMBRE,0-5,PASEO DE LA REFORMA,0,,-99.19245399,19.42567018,CDMX
09016722512001401000000000U7,PUESTO DE MARISCOS BUBA JOHNS,0-5,PASEO DE LA REFORMA,0,,-99.19244487,19.42566821,CDMX
09016722513004591000000000U0,ALIMENTOS Y BEBIDAS PREPARADOS,0-5,PASEO DE LA REFORMA,0,,-99.19242475,19.42566386,CDMX
09016722514007741000000000U6,TACOS DE GUISADO SIN NOMBRE,0-5,PASEO DE LA REFORMA,0,,-99.19241563,19.42566189,CDMX
09016722513005411000000000U0,TACOS DE CARNITAS SIN NOMBRE,0-5,PASEO DE LA REFORMA,0,,-99.19240657,19.42565970,CDMX
09016722110000772000000000U5,SBARRO,11-30,EJERCITO NACIONAL MEXICANO,843,131,-99.20291490,19.43858638,CDMX
09016722516000284000000000U9,CANTINA LA NUMERO 20,31-50,EJERCITO NACIONAL MEXICANO,843,,-99.20291490,19.43858638,CDMX
09016722515002921000000000S6,JACKS BUTCHER,6-10,EJERCITO NACIONAL MEXICANO,843,0,-99.20291472,19.43859221,CDMX
09016465919001751000000000U3,SNOB BISTRO,6-10,EJERCITO NACIONAL MEXICANO,843,,-99.20291472,19.43859221,CDMX
09016722517002351000000000U2,PUESTO DE HAMBURGUESAS HOT DOGS Y REFRESCOS EL AGUILA,0-5,PASEO DE LA REFORMA,0,,-99.19237727,19.42565360,CDMX
09016722511000076001002870S0,50 FRIENDS ANTARA,0-5,EJÉRCITO NACIONAL MEXICANO,843,,-99.20292540,19.43859250,CDMX
09016722211000361000003396S3,M06750 MC DONALS POLANCO ANTARA 675,0-5,EJÉRCITO NACIONAL MEXICANO,843,,-99.20294006,19.43859291,CDMX
09016722511010063000017607S6,MAISON KAYSER HOMERO,0-5,Homero,1500,,-99.20485431,19.43609795,CDMX
09016722511000014001000000U1,RESTAURANT ODEON,0-5,EJERCITO NACIONAL MEXICANO,843,,-99.20295067,19.43859320,CDMX
09016722514004161000000000U0,TORTAS AUDITORIO,0-5,PASEO DE LA REFORMA,0,,-99.19233642,19.42562580,CDMX
09016722514002921000000000U9,COCINA GODIN,0-5,EJERCITO NACIONAL MEXICANO,880,,-99.20339952,19.43824390,CDMX
09016722511000501000078370S7,TUUX KABIN,6-10,EJERCITO NACIONAL MEXICANO,880,0,-99.20339952,19.43824390,CDMX
09016722110002754002003628S1,1015 CHILIS ANTARA,0-5,EJÉRCITO NACIONAL MEXICANO (PRESA SALINAS),843,101,-99.20303660,19.43859558,CDMX
09016722110002333002004464S4,SUSHI ITTO ANTARA POLANCO,0-5,EJÉRCITO NACIONAL MEXICANO,843,,-99.20305786,19.43859617,CDMX
09016722212008591001000000M5,POLLOS RIOS LOMAS PLAZA,0-5,BOULEVARD MANUEL AVILA CAMACHO,50,,-99.20521177,19.42946049,CDMX
09016722517000502010000000U2,APOLO,0-5,BOULEVARD MANUEL AVILA CAMACHO,50,,-99.20521177,19.42946049,CDMX
09016722514007291000000000U2,RESTAURANTE TUUX KABIN,0-5,EMERSON,157,,-99.18882964,19.43589649,CDMX
09016722110002994000000000U3,RESTAURANTE ENTREMAR,51-100,HEGEL,307,0,-99.18810402,19.43296520,CDMX
09016722511000213001000000U9,RESTAURANTE CASA D AMICO,11-30,HOMERO,433,0,-99.18865823,19.43556196,CDMX
09016722511006721000039698S5,LE PAIN QUOTIDIEN HEGEL,0-5,HEGEL,307,,-99.18810355,19.43318179,CDMX
09016722512001011000000000U4,MARISCOS,0-5,FERROCARRIL DE CUERNAVACA CICLOPISTA,0,0,-99.20393322,19.42726335,CDMX
09016722513001161000000000U5,CALDOS DE GALLINA EL GAVILAN POLLERO,0-5,FERROCARRIL DE CUERNAVACA CICLOPISTA,0,0,-99.20391819,19.42723419,CDMX
09016722219012454000000000S5,UN LUGAR DE LA MANCHA,11-30,ESOPO,11,0,-99.20593861,19.43268262,CDMX
09016722516001923000000000U1,MAYSON KAISER,11-30,HOMERO,1500,,-99.20514543,19.43610649,CDMX
09016722512001491000000000U8,BISMARKCITO,0-5,HOMERO,1500,4,-99.20515326,19.43610671,CDMX
09016722514001071000000000U4,TACOS LOS BETOS,0-5,FERROCARRIL DE CUERNAVACA CICLOPISTA,,0,-99.20384315,19.42708860,CDMX
09016722513001611000000000U9,ANTOJITOS MEXICANOS,0-5,FERROCARRIL DE CUERNAVACA CICLOPISTA,0,0,-99.20383004,19.42706316,CDMX
09016722516001412000003408S5,TACO INN ANTARA,0-5,EJERCITO NACIONAL,843,,-99.20338179,19.43860514,CDMX
09016722511000981001000000U1,RESTAURANTE AROMI SAPORI,11-30,LAMARTINE,468,,-99.18954535,19.43736874,CDMX
09016722514007351000000000U4,TORTAS LOS AMIGOS,0-5,FERROCARRIL DE CUERNAVACA CICLOPISTA,0,,-99.20380936,19.42702305,CDMX
09016722511002482001000000U8,LA BOMBA,6-10,CAMPOS ELISEOS,400,0,-99.20582226,19.43089538,CDMX
09016722514007361000000000U3,BARRA DE BURRITOS MIKYFRANK,0-5,FERROCARRIL DE CUERNAVACA CICLOPISTA,0,9,-99.20379625,19.42699761,CDMX
09016722514004881000000000U3,PUESTO SEMIFIJO DE VENTA DE TORTAS,0-5,EJERCITO NACIONAL MEXICANO,0,0,-99.18997479,19.43795734,CDMX
09016722513002031000000000U9,MC PUENTE ANTOJITOS MEXICANOS Y REFRESCOS,0-5,FERROCARRIL DE CUERNAVACA CICLOPISTA,,,-99.20376812,19.42694302,CDMX
09016722219010852000000000U2,EL BODEGON DEL CHEF,6-10,SOCRATES,898,,-99.20390436,19.43811526,CDMX
09016722513004671000000000U0,TURIX COCHINITA PIBIL,0-5,FERROCARRIL DE CUERNAVACA CICLOPISTA,,,-99.20375873,19.42692481,CDMX
09016722513003691000000000U9,TACOS DE CARNITAS SIN NOMBRE,0-5,FERROCARRIL DE CUERNAVACA CICLOPISTA,,,-99.20374935,19.42690662,CDMX
09016722514006961000000000U1,TACOS DE GUISADOS SIN NOMBRE,0-5,EJERCITO NACIONAL MEXICANO,,,-99.18984105,19.43794969,CDMX
09016722511004113000000000U7,PARRILLADA URUGUAYA DON ASADO,11-30,HOMERO,428,,-99.18830872,19.43537414,CDMX
09016722511000165002003580S1,50231 LOMAS PLAZA,0-5,BOULEVARD MANUEL ÁVILA CAMACHO,50,,-99.20584573,19.42991690,CDMX
09016722511008552000000000U2,RESTAURANTE OJO DE AGUA,6-10,PLINIO,1513,,-99.20541787,19.43632162,CDMX
09016722511000095002003389S0,ITALIANNIS LOMAS PLAZA,0-5,BOULEVARD PRESIDENTE MANUEL AVILA CAMACHO,50,,-99.20584626,19.42991727,CDMX
09016722519001012000028154S7,GREEN GRASS LOMAS PLAZA,0-5,BOULEVARD MANUEL ÁVILA CAMACHO,50,223,-99.20585926,19.42992638,CDMX
09016722518004992000000000U9,COCINA ECONOMICA SIN NOMBRE,6-10,MIGUEL DE CERVANTES SAAVEDRA,0,,-99.19371679,19.44085578,CDMX
09016722516001781000000000U3,COMIDA RAPIDA MARGARITA ALMA LATINA,0-5,BOULEVARD MANUEL AVILA CAMACHO,50,,-99.20594326,19.42998523,CDMX
09016722517002511000000000U1,HOT DOG RAMIREZ,0-5,BOULEVARD MANUEL AVILA CAMACHO,50,216,-99.20595397,19.42999274,CDMX
09016722511009621000000000U4,RESTAURANTE DE COMIDA RAPIDA S&R LA MEXICO,0-5,BOULEVARD MANUEL AVILA CAMACHO,50,,-99.20597094,19.43000464,CDMX
09016722518004381000000000U5,ITACATLAN,0-5,LAGUNA DE LA MANCHA,114,,-99.19538728,19.44137676,CDMX
09016722518005161000068263M0,RESTAURANTE DE COMIDA RAPIDA OKAI POKE,0-5,BOULEVARD MANUEL AVILA CAMACHO,50,222,-99.20599236,19.43001965,CDMX
09016722511004902000000000U3,RESTAURANTE COMIDA MEXICANA MI MEXICO LINDO,6-10,EJERCITO NACIONAL MEXICANO,458,,-99.18925476,19.43766005,CDMX
09016722511007851000000000U9,RESTAURANTE LA PICCOLA TRATTORIA,0-5,EJERCITO NACIONAL MEXICANO,458,,-99.18923569,19.43765912,CDMX
09016722518004371000000000U6,COCINA WIPI,0-5,LAGO FILT,6,,-99.19580883,19.44152662,CDMX
09016722110001773001000000U2,RISTORANTE BULLA,31-50,HOMERO,418,0,-99.18795553,19.43536477,CDMX
09016722211000693001000000U9,RESTAURANTE BAR CAMPO MARTE,0-5,NINGUNO,0,,-99.19593899,19.42362225,CDMX
09005722511002853011028206S3,OPERADORA Y ADMINISTRADORA DE RESTAURANTES GIGANTE,0-5,EJERCITO NACIONAL,843,,-99.20412438,19.43862570,CDMX
09016722518005141000000000U2,LA TERRAZA COCINA ECONOMICA,0-5,LAGUNA DE LA MANCHA,89,,-99.19426011,19.44136892,CDMX
09016722219007701000000000U6,LA DIVA GOURMET,0-5,LAGUNA DE LA MANCHA,74,1,-99.19398435,19.44130236,CDMX
09016722516001561000000000U9,PAI PAI SUSHI,0-5,LAGUNA DE LA MANCHA,87,,-99.19416477,19.44136430,CDMX
09016722511008641000000000U3,RESTAURANTE FRANGO,0-5,LOPE DE VEGA,341,,-99.18734935,19.43188176,CDMX
09014722517001473011028213M0,CARLS JUNIOR,0-5,MONTES URALES NORTE ,530,,-99.20496680,19.42736491,CDMX
09016722518002091000000000U2,CASA HABANA,0-5,LOPE DE VEGA,345,,-99.18734728,19.43165514,CDMX
09016722511010122000000000U0,SERVICIO RESTAURANTE SABOR A MI POLANCO,6-10,Lope De Vega,345,,-99.18734728,19.43165514,CDMX
09016722110000251000098071M0,RESTAURANTES SUNTORY Y SUCURSAL LOMAS,0-5,MONTES URALES NORTE,535,,-99.20510828,19.42752976,CDMX
09016722518000851011000000U1,ANTOJITOS MEXICANOS SANCHEZ,0-5,MONTES URALES,0,,-99.20479914,19.42706085,CDMX
09016722514002861000000000U7,TORTAS MAXI,0-5,MONTES URALES,0,,-99.20479914,19.42706085,CDMX
09016722514004511000000000U6,TACOS DE GUISADO,0-5,MONTES URALES,0,,-99.20479914,19.42706085,CDMX
09016722514003051000000000U4,TACOS DE GUISADO EL CHINO,0-5,MONTES URALES,0,,-99.20479914,19.42706085,CDMX
09016722110002423000000000U3,RESTAURANT GRUTA EHDEN POLANCO,11-30,LOPE DE VEGA,334,0,-99.18726020,19.43226068,CDMX
09016722511009313000000000U8,KUCHEN CATERING,11-30,LAGUNA YURIRIA,113,,-99.19499953,19.44165388,CDMX
09016722517002611000000000U9,POLLO STAR,0-5,LAGO VICTORIA,16,,-99.19352767,19.44124844,CDMX
09016722511009701000000000U4,LA LECHUGUERIA,0-5,LAGO VICTORIA,16,,-99.19352710,19.44125782,CDMX
09016722512001223000026154S5,PUNTARENA VIRREYES,0-5,PEDREGAL,24,,-99.20341594,19.42560040,CDMX
09016722219010152000000000U7,CHINA EXPRESS,6-10,EJERCITO NACIONAL MEXICANO,843,0,-99.20448046,19.43863556,CDMX
09016722513003091000000000U2,ANTOJERIA EMY,0-5,FERROCARRIL DE CUERNAVACA,653,0,-99.19829163,19.44183742,CDMX
09016722211000663000003404S2,15556 ANTARA,0-5,EJÉRCITO NACIONAL MEXICANO,843,,-99.20448674,19.43863573,CDMX
09016722511008732000000000U0,SERVICIO DE CAFETERIA CAJA DE CRISTAL,6-10,ISAAC NEWTON,186,0,-99.18739112,19.43456674,CDMX
09016722518004111000000000U6,FONDA EL SAZON DE LA ABUELA,0-5,LAGUNA YURIRIA,105,,-99.19458899,19.44164379,CDMX
09016722511009033000000000U2,RESTAURANTE LA BIKINA MEXICO,11-30,LOPE DE VEGA,406,,-99.18727463,19.43121885,CDMX
09016722212008661000000000U6,EL BUEN COMER,0-5,LAGO VICTORIA,73,0,-99.19358985,19.44143114,CDMX
09016722212006351000000000U6,COCINA ECONOMICA ROSITA,0-5,FERROCARRIL DE CUERNAVACA,25,2,-99.19633052,19.44199547,CDMX
09016722518004061000000000U3,VENTA DE COMIDA RAPIDA BREAKPOINT,0-5,CAMPOS ELISEOS,526,,-99.20688811,19.43152359,CDMX
09016811111003911000000000U6,EL CIERVO,6-10,LAGO ESPEJO,30,,-99.19661862,19.44203999,CDMX
09016722518002134011028201S0,1504 CARSO,0-5,LAGO ZÚRICH,0,,-99.20295242,19.44020345,CDMX
09016722219010622000000000U9,RESTAURANTE TLACOQUEMECATL,0-5,LAGUNA DE LA MANCHA,36,0,-99.19292540,19.44124882,CDMX
09016722518004731000000000U1,LA VICTORIA,0-5,LAGO VICTORIA,9,1,-99.19358498,19.44151250,CDMX
09016722513005111000000000U6,VENTA ALIMENTOS DE COCHINITA PIBIL COCHI BA BOY,0-5,BOULEVARD MANUEL AVILA CAMACHO,0,,-99.20687551,19.43102758,CDMX
09016722110003926000000000U4,TORRE DE CASTILLA,0-5,ESOPO,31,,-99.20700140,19.43318322,CDMX
09016722511003911001002563S5,TOKS,0-5,EJÉRCITO NACIONAL MEXICANO,453,,-99.18867509,19.43792032,CDMX
09016722219012283000000000U8,LA COCINA DE MARGOT,6-10,BOULEVARD MANUEL AVILA CAMACHO,0,,-99.20692248,19.43106472,CDMX
09016722212006261000000000U7,COCINA ECONOMICA EL FERROCARRIL,0-5,FERROCARRIL DE CUERNAVACA,127,0,-99.19557451,19.44206180,CDMX
09016722511003594010000000U9,CABANNA,0-5,PRESIDENTE MASARYK,134,,-99.18701380,19.43132762,CDMX
09016722511000022001002182M4,EL RINCON DE LA ARRACHERA,0-5,PEDREGAL,24,300,-99.20350155,19.42529215,CDMX
09016722513004761000000000U9,FOGON BISTRO,0-5,LAGO NYASSA,25,,-99.18980016,19.43929530,CDMX
09016722514002661000000000U1,PUESTO DE TACOS DE BISTECK MERU,0-5,MIGUEL DE CERVANTES SAAVEDRA,0,0,-99.19136332,19.44055421,CDMX
09016722513005543000000000U0,RESTAURANTE DE COMIDA RAPIDA BOCHETTE & BURGERS,11-30,FERROCARRIL DE CUERNAVACA CICLOPISTA,50,,-99.20667025,19.42977499,CDMX
09016722511004174000028181S9,MOSHI MOSHI VIRREYES,0-5,PEDREGAL,24,1,-99.20351258,19.42522870,CDMX
09016722518002571000000000U3,COCINA LA TIA,0-5,LAGO SEUL,28,0,-99.19696145,19.44224578,CDMX
09016722517002021000000000U1,DE HUEVOS,0-5,LOPE DE VEGA,157,,-99.18729707,19.43550843,CDMX
09016722511004045000000000U1,RESTAURANTE AITANA,0-5,PEDREGAL,24,,-99.20351971,19.42518638,CDMX
09016722211000461002004093S1,SUC KFC 385 ANTARA POLANCO.,0-5,EJÉRCITO NACIONAL ,843,,-99.20493488,19.43864814,CDMX
09016722513003103000000000U5,EL GIL CARNITAS,6-10,LAGO MANITOBA,33,0,-99.19742308,19.44225442,CDMX
09016461110010231000000000U5,COCINA ECONOMICA EL LUGAR DE VICKY,0-5,CERRADA LAGO ANDROMACO,0,40,-99.20090043,19.44153931,CDMX
09016465919001531000000000U9,TANGO Y MILONGA,0-5,HORACIO,330,0,-99.18681641,19.43315558,CDMX
09016722513005741000000000U0,CARNITAS LAS VIAS,0-5,MOLIERE,326,,-99.20058352,19.44166784,CDMX
09016722516000471002003396S2,M09350 MC DONALDS 935 LOMAS PLAZA,0-5,BOULEVARD MANUEL ÁVILA CAMACHO,50,,-99.20706425,19.43076820,CDMX
09016722515003982000000000U7,RESTAURANTE CUCURUCHO,0-5,HORACIO,327,,-99.18676475,19.43335161,CDMX
09016541510005451000000000U1,SERVICIO DE RESERVA EN RESTAURANTES RESERVANDONOS,0-5,HEGEL,713,,-99.18768094,19.42838505,CDMX
09016722514004901000000000U9,EL HABANERISMO,0-5,LAGO BELGRANO,17,0,-99.19625041,19.44237768,CDMX
09016722511006054000000000U1,DIEGO Y YO,31-50,PRESIDENTE MASARYK,123,0,-99.18672781,19.43145010,CDMX
09016722219005431000000000U2,TACO EXPRESS,0-5,HOMERO,333,0,-99.18710301,19.43547824,CDMX
09016722511006611000022688S8,LOMAS PLAZA WINGSTOP,0-5,MAUEL AVILA CAMACHO,50,,-99.20719206,19.43085662,CDMX
09016722512001191000000000U4,PUNTARENA,0-5,PEDREGAL,124,0,-99.20353028,19.42491443,CDMX
09016722511002882000000000U9,FONDA Y TAQUERIA DOÑA MAGO,0-5,TEAPA,4,0,-99.20309063,19.42454024,CDMX
09016812210000021000000000U6,LA MEXICANA,0-5,LOPE DE VEGA,157,0,-99.18721938,19.43612936,CDMX
09016722212004491010000000U2,COCINA ECONOMICA,0-5,LAGUNA YURIRIA,28,0,-99.19235664,19.44150004,CDMX
09016722219005981000000000U6,RESTAURANTE CARMELITA,0-5,LAGUNA YURIRIA,26,1,-99.19229940,19.44149791,CDMX
09016722511003421001000000U5,MI CASA RESTAURANT,6-10,LAGUNA DE LA MANCHA,18,0,-99.19168449,19.44119560,CDMX
09016722219009412001000000U8,COCINA ECONOMICA EL COTORREO,6-10,HOMERO,333,,-99.18694074,19.43547337,CDMX
09016722518004321000000000U1,COCINA ECONOMICA HEYSELL,0-5,CERRADA LAGO ANDROMACO,0,40,-99.20082968,19.44190062,CDMX
09016722219005121000000000U9,ANTOJITOS CARMELITA,0-5,LAGUNA YURIRIA,27,60,-99.19233625,19.44156284,CDMX
09016461110012461010000000S6,BODEGA 1,0-5,LAGUNA YURIRIA,27,0,-99.19233625,19.44156284,CDMX
09016461110012271000000000S9,BODEGA 6 OSTIONERIA PUERTO ESCONDIDO,0-5,LAGUNA YURIRIA,27,0,-99.19233625,19.44156284,CDMX
09016461110012441010000000S8,BODEGA 8 CARNITAS SOTO HERMANOS,0-5,LAGUNA YURIRIA,27,0,-99.19233625,19.44156284,CDMX
09016722512000131000083854S1,MARISQUERIA PLAYA CAREYES,0-5,LAGUNA YURIRIA,27,0,-99.19233625,19.44156284,CDMX
09016722212007841000000000U5,COCINA MARTHA - LANCHITA TERCERA,0-5,LAGUNA YURIRIA,27,146,-99.19233625,19.44156284,CDMX
09016722513005011000000000U8,FUENTE DE SODAS GRANADA,0-5,LAGUNA YURIRIA,27,5758,-99.19233625,19.44156284,CDMX
09016722513004521000000000U7,ENSALADAS GRANADAS,0-5,LAGUNA YURIRIA,27,70,-99.19233625,19.44156284,CDMX
09016722219000081000000000U0,CALDOS DE GALLINA EL FAMOSO,0-5,LAGUNA YURIRIA,27,,-99.19233625,19.44156284,CDMX
09016722219010992010000000U6,ANTOJITOS GRANADA,0-5,LAGUNA YURIRIA,27,56,-99.19233625,19.44156284,CDMX
09016722219004221001000000U8,MARISCOS PUERTO ESCONDIDO,0-5,LAGUNA YURIRIA,27,34,-99.19233625,19.44156284,CDMX
09016722512000111000000000S3,BODEGA 5 OSTIONERIA PUERTO ESCONDIDO,0-5,LAGUNA YURIRIA,27,,-99.19233625,19.44156284,CDMX
09016722518003781000000000S7,BODEGA 7 COCINA FONDA DOÑA LANCHA Y SUS LANCHITAS,0-5,LAGUNA YURIRIA,27,0,-99.19233625,19.44156284,CDMX
09016722514001322000095292M1,TAQUERIA EL PANCHITO,6-10,LAGUNA YURIRIA,27,56,-99.19233625,19.44156284,CDMX
09016722219008872000000000U4,FONDA DOÑA LANCHA Y SUS LANCHITAS,0-5,LAGUNA YURIRIA,27,0,-99.19233625,19.44156284,CDMX
09016722514000251000095292S3,BODEGA 4 TAQUERIA EL PANCHITO,0-5,LAGUNA YURIRIA,27,0,-99.19233625,19.44156284,CDMX
09016722219003681000000000U4,CARNITAS SOTO RUBIO HERMANOS,0-5,LAGUNA YURIRIA,27,82,-99.19233625,19.44156284,CDMX
09016722212008101000000000U3,COCINA ELY,0-5,LAGUNA YURIRIA,27,147,-99.19233625,19.44156284,CDMX
09016722516001211000000000S1,BODEGA 2 CALDOS DE GALLINA EL FAMOSO,0-5,LAGUNA YURIRIA,27,0,-99.19233625,19.44156284,CDMX
09016722513000381000000000U0,ANTOJITOS MEXICANOS,0-5,RIO SAN JOAQUIN,0,,-99.19139116,19.44106842,CDMX
09016722518002401000000000U3,COMEDOR COMINITARIO,0-5,LAGO SAN JOSE,68,0,-99.19728224,19.44260160,CDMX
09016722511002514001000000U8,RESTAURANTE RAIZ,0-5,SCHILLER,331,0,-99.18646532,19.43170190,CDMX
09016722518004942000000000U4,COCINA ECONOMICA SHEI,6-10,CERRADA LAGO ANDROMACO,25,,-99.20082413,19.44197281,CDMX
09016722514007181000000000U5,TACOS CARLA Y MICHELLE,0-5,LAGO SAN JOSE,59,59,-99.19692778,19.44265285,CDMX
09016722511010193000000000U1,RESTAURANTE ER RRE BRISTO,11-30,Polanco,8,,-99.18669375,19.43022745,CDMX
09016722511005793000000000U5,ORALE OREPA,31-50,SCHILLER,330,,-99.18638632,19.43199955,CDMX
09016722513002431000000000U1,COCINA ECONOMICA SIN NOMBRE,6-10,CERRADA LAGO ANDROMACO,62,35,-99.20086724,19.44201879,CDMX
09016722511005761000000000U2,COCINA MARY,6-10,ALICA,15,,-99.20319504,19.42437348,CDMX
09016722212006671011000000U7,EL TACOTE,0-5,LAGUNA YURIRIA,224,0,-99.19179331,19.44147908,CDMX
09016722219009112001000000U4,COCINA CASA AZUL,6-10,ALICA,16,0,-99.20315482,19.42427290,CDMX
09016722511004864000000000U5,BOTTEGA CULINARIA,11-30,VOLCAN,150,1,-99.20715566,19.42934079,CDMX
09016722219001231000000000U0,RESTAURANTE BELUGA,0-5,PRESIDENTE MASARYK,120,,-99.18635501,19.43131384,CDMX
09016722518000994011000000U9,RESTAURANTE LA CAZITA,0-5,FERROCARRIL DE CUERNAVACA  CICLOPISTA,125,125,-99.20747915,19.43029763,CDMX
09016722511004561000000000U7,PARCHITA,0-5,LAGO SAN JOSE,15,1,-99.19487467,19.44262186,CDMX
09016722511005063000000000M3,PELTRE LONCHERIA,31-50,SCHILLER,253,0,-99.18629995,19.43381955,CDMX
09016722219009172000000000U8,RESTAURANT EL 055,6-10,ALICA,22,55,-99.20320556,19.42421952,CDMX
09016722511008923000000000U5,OKU,11-30,PRADO SUR,125,,-99.20542518,19.42617698,CDMX
09016722212008952001000000U9,ROSA DEL MAR,0-5,ALICA,30,0,-99.20316236,19.42415544,CDMX
09016722511003371001000000U2,COCINA DOÑA MARY,6-10,CERRADA LAGO ANDROMACO,62,14,-99.20085343,19.44221830,CDMX
09016722514006751000000000U6,LONCHERRIA DE BARRIO LA CAPRICHOSA,0-5,LAGO SAN JOSE,3,,-99.19429199,19.44262205,CDMX
09016722511004872000000000U8,SAKE SUSHI BAR,11-30,VOLCAN,150,4,-99.20729936,19.42919627,CDMX
09016722511004883000000000U5,TREZECON,11-30,VOLCAN,150,3,-99.20729936,19.42919627,CDMX
09016722516000043000003286S9,11580 PARQUES POLANCO,0-5,LAGO ALBERTO,320,,-99.18935061,19.42521076,CDMX
09016722518000751001000000U3,COCINA ECONOMICA LOS TACOS DEL 15,0-5,CERRADA LAGO ANDROMACO,62,15,-99.20084344,19.44236280,CDMX
09016722511002311001000000U9,COCINA ECONOMICA LA CASA DE LAAS CRUCES,0-5,CERRADA LAGO ANDROMACO,62,13,-99.20084156,19.44238990,CDMX
09016722211000371020003286S2,11068 ANZURES,0-5,HORACIO,308,,-99.18596523,19.43310466,CDMX
09016722511004952000000000U8,COCINA POLOLI,0-5,PEDREGAL,44,0,-99.20355156,19.42411687,CDMX
09016722511010233000000000U5,RESTAURANTE BAR JAPONES RYOSHI,11-30,PRESIDENTE MASARYK,111,,-99.18595444,19.43143566,CDMX
09016722514006201000000000U2,TAQUERIA EL VIRREY,0-5,PEDREGAL,46,0,-99.20355793,19.42407228,CDMX
09016722518002081001000000U3,SUSHITAKE,6-10,TOPILEJO,40,0,-99.20279227,19.42357743,CDMX
09016722511008472000000000S3,RESTAURANTE ORALE MILANGA,6-10,HORACIO,256,,-99.18585845,19.43329046,CDMX
09016722514004591000000000U8,TORTAS CHARLY,0-5,FERROCARRIL DE CUERNAVACA CICLOPISTA,0,0,-99.20816599,19.43247435,CDMX
09016722517002471000000000U8,HAMBURGUESAS DE SOTELO,0-5,FERROCARRIL DE CUERNAVACA CICLOPISTA,0,,-99.20809351,19.43381552,CDMX
09016722511009541000000000U4,EL TEPEHUANI,0-5,FERROCARRIL DE CUERNAVACA CICLOPISTA,0,,-99.20809351,19.43381552,CDMX
09016722511010243000000000U4,RESTAURANTE ORCHD HOUSE POLANCO,11-30,SCHILLER,0,,-99.18620240,19.42986869,CDMX
09016722110003946000000000U2,PUERTO MADERO POLANCO,0-5,PRESIDENTE MASARYK,110,,-99.18588395,19.43130212,CDMX
09016722511009133000000000U0,RESTAURANTE OJO DE AGUA,11-30,PEDREGAL,33,,-99.20373876,19.42411096,CDMX
09016722511001733000000000U5,RESTAURANTE CAFE JEKEMIR,11-30,HORACIO,304,,-99.18580543,19.43309582,CDMX
09016722511009403000000000U7,RESTAURANTE AJO BLANCO,11-30,PEDREGAL,45,,-99.20373990,19.42410201,CDMX
09016461121004203000000000U9,MIDAM,11-30,PEDREGAL,49,0,-99.20374104,19.42409306,CDMX
09016722513005701000000000S4,EL ASADERO POLANCO,0-5,EJERCITO NACIONAL MEXICANO,414,,-99.18699324,19.43754996,CDMX
09016722511007585000003369S3,APPLEBEES,0-5,LAGO ZÚRICH,245,,-99.20296377,19.44173099,CDMX
09016722110001783002003761S1,WINGS SALA GASTRONOMICA,0-5,AVENIDA GANDHI,44,,-99.18748943,19.42676769,CDMX
09016722511010111000000000U3,PETRARCA,0-5,Francisco Petrarca,307,0,-99.18565777,19.43279266,CDMX
09016722518004781000000000U6,COCINA PAOLA,0-5,CERRADA LAGO ANDROMACO,0,32,-99.20081714,19.44274294,CDMX
09016722511008073000069500S9,RESTAURANTE ENO Y HERMANOS,11-30,FRANCISCO PETRARCA,258,,-99.18565051,19.43329995,CDMX
09016722511008942000000000S5,UNDICCI PIZZA,6-10,FRANCISCO PETRARCA,101,,-99.18565037,19.43163255,CDMX
09016722110003324000039925M2,CAROLO CARSO,0-5,LAGO ZÚRICH,245,,-99.20296115,19.44183416,CDMX
09016722511008613000000000U2,RESTAURANTE TICUCHI,11-30,FRANCISCO PETRARCA,254,,-99.18558053,19.43339836,CDMX
09016722517002442000064680S9,CHUBBIES BURGER,6-10,LAGO ANDROMACO,17,,-99.19991777,19.44311237,CDMX
09016722511008501000000000U9,SEMILLERO,0-5,LAGO ANDROMACO,17,17,-99.19991777,19.44311237,CDMX
09016722518000161000000000U5,COCINA ERRE,0-5,TETLA,55,,-99.20297860,19.42331721,CDMX
09016722511002212001000000U9,RESTAURANTE LA PAROLITA,0-5,PEDREGAL,35,,-99.20377549,19.42382319,CDMX
09016722516000461002003404S3,17906 PLAZA CARSO,0-5,LAGO ZÚRICH,245,,-99.20295931,19.44190672,CDMX
09016722511002836001000000U5,RESTAURANTE LOMA LINDA,0-5,LAGO ZÚRICH,245,,-99.20295877,19.44192815,CDMX
09016722219011822000000000U4,CARNITAS HERMANOS ROJAS,0-5,TETLA,17,0,-99.20336660,19.42348609,CDMX
09016722511003121001000000U1,IDE GOURMET ORIENTAL,11-30,PRESIDENTE MASARYK,101,,-99.18553435,19.43142597,CDMX
09016722511008824000000000U5,RESTAURANTE DE COMIDA ORIENTAL AZIA,31-50,PRESIDENTE MASARYK,101,,-99.18553435,19.43142597,CDMX
09016722518003251000000000U1,CINCO CINCO,0-5,TOPILEJO,55,0,-99.20296569,19.42323482,CDMX
09016722513002991000000000U4,TAQUERIA MADRE PATRIA,0-5,TETLA,17,,-99.20351045,19.42352934,CDMX
09016722219000121001000000U4,CAFE 37,0-5,LAGO ANDROMACO,40,,-99.20050131,19.44307221,CDMX
09016722513004921000000000U9,ANTOJITOS YUCATECOS LA BOMBA,0-5,TETLA,89,,-99.20336802,19.42341381,CDMX
09016722511008111000000000U7,RESTAURANTE PONTE CHINGON,0-5,ALICA,90,,-99.20330016,19.42336836,CDMX
09016722512001461000000000U1,LOS ALMEJOS,0-5,PRESIDENTE MASARYK,0,,-99.20858997,19.43295128,CDMX
09016722110004027001000000U0,RESTAURANTE BAR LA HACIENDA DE LOS MORALES,0-5,JUAN VAZQUEZ DE LA MELLA,525,,-99.20854077,19.43388212,CDMX
09016722511007473000000000U2,SUSHI ROLL NUEVO POLANCO,0-5,MIGUEL DE CERVANTES SAAVEDRA,397,1,-99.20534462,19.44027579,CDMX
09016722516001391000000000U1,RESTAURANTE SUSHI TAKE,6-10,TOPILEJO,40,,-99.20300168,19.42311897,CDMX
09016722513005081000000000U1,MARTUCHIS FLAUTAS,0-5,TETLA,1,,-99.20360685,19.42348585,CDMX
09016722518001011000000000U1,COMIDAS TERE,0-5,ALICA,96,0,-99.20332412,19.42330654,CDMX
09016722516000102010000000U3,ASADERO BEEF,6-10,LAGO ZURICH,245,,-99.20295341,19.44213935,CDMX
09016722110004083000028189S3,MR SUSHI DOS PATIOS,0-5,EJERCITO NACIONAL,350,,-99.18649202,19.43751566,CDMX
09016722518000971001000000U7,COCINA ECONOMICA LA CASITA,6-10,TOPILEJO,69,0,-99.20302134,19.42305570,CDMX
09016722110000211000000000U4,LA QUERENCIA TACOS,0-5,LAGO NARGIS,50,0,-99.18669518,19.43792301,CDMX
09016722513002321010000000U4,TORTAS JEFITO,0-5,MATEO ALEMAN,0,,-99.19976414,19.44342141,CDMX
09016722516000171001002752S8,SUBWAY CHEDRAUI POLANCO,0-5,MIGUEL DE CERVANTES SAAVEDRA,397,,-99.20551005,19.44028220,CDMX
09016722516000182000000000U5,PANDA EXPRESS,0-5,MIGUEL DE CERVANTES SAAVEDRA,397,0,-99.20551635,19.44028243,CDMX
09016722516000442010000000U3,YUKIO SUSHI,0-5,MIGUEL DE CERVANTES SAAVEDRA,397,15,-99.20555451,19.44028391,CDMX
09016722514004551000000000U2,RICAS CARNITAS EL TEXANO,0-5,MATEO ALEMAN,0,,-99.19976228,19.44346667,CDMX
09016722518003461000000000U6,RESTAURANTE MESTIZO,0-5,EJERCITO NACIONAL MEXICANO,385,0,-99.18657697,19.43782215,CDMX
09016463215000981010000000U2,HELLO KITTY CAFE,11-30,LAGO ZURICH,245,,-99.20295019,19.44226616,CDMX
09016722511001942001000000U2,RESTAURANT EL RINCON DE YESCAS,0-5,ALICA,110,0,-99.20338774,19.42314244,CDMX
09016722211000451000003396S2,MC DONALDS 21 PABELLON POLANCO,0-5,EJÉRCITO NACIONAL MEXICANO,980,,-99.20713199,19.43843405,CDMX
09016722511007592000021918S9,SUSHIROLL MASARYK PREMIUM,0-5,PRESIDENTE MASARYK (AVENIDA DE LOS CORREDORES),94,,-99.18522589,19.43127962,CDMX
09016722219009642000000000U0,TORTERIA Y TACOS ROYALTY,0-5,HORACIO,227,0,-99.18512403,19.43324042,CDMX
09016541810002993001000000U9,RESTAURANTE LA POSADA DEL SANCHO,31-50,ISAAC NEWTON,364,0,-99.18561096,19.43600823,CDMX
09016722514003871000000000U5,PUESTO DE TORTAS SAN FERNANDO,0-5,MOLIERE,0,0,-99.19936887,19.44371260,CDMX
09016722511005891000000000U7,AREPAS HOT,0-5,LAGO HIELMAR,108,0,-99.19192576,19.44294080,CDMX
09016722513004264000037877S4,LA CASA DE TOÑO,0-5,MIGUEL DE CERVANTES SAAVEDRA,380,,-99.20595877,19.44029953,CDMX
09016722511009391000000000U4,QIAO XIA,0-5,RIO SAN JOAQUIN,0,420,-99.19853254,19.44398180,CDMX
09016722514004891000000000U2,PUESTO SEMIFIJO DE VENTA DE TACOS DE GUISADO FANNY,0-5,EJERCITO NACIONAL MEXICANO,0,0,-99.18621414,19.43781483,CDMX
09016722110003915002000000U7,MAREA FISHERS,0-5,HIPÓLITO TAINE,311,,-99.18488176,19.43271268,CDMX
09016722512001362000000000S1,RESTAURANTE CON VISTA AL MAR,6-10,PEDREGAL,70,,-99.20382698,19.42309010,CDMX
09016722511008521000000000U7,SON DELICIAS,0-5,PASEO DE LAS PALMAS,0,2,-99.20902458,19.43099109,CDMX
09016722514000132011003408S5,NIMI S SHAWARMA & FALAFEL,0-5,EJRCITO NACIONAL MEXICANO,843,,-99.20750037,19.43845211,CDMX
09016722212006741000054572S8,PAPA JOHNS,0-5,EJÉRCITO NACIONAL MEXICANO,373,,-99.18609528,19.43781244,CDMX
09016722511008532000000000U4,RESTAURANTE SAN PAR CENINA RICA,6-10,AVENIDA CORDILLERA DE LOS ANDES,221,1,-99.20896188,19.43020962,CDMX
09016722511009411000000000U0,DASON HOTPOT,0-5,RIO SAN JOAQUIN,0,515,-99.19859377,19.44415955,CDMX
09016722517001991000060980S6,POLANCO,0-5,D,253,,-99.18539404,19.42868948,CDMX
09016722211000733000003404S3,12077 CERVANTES,0-5,MIGUEL DE CERVANTES SAAVEDRA,397,,-99.20625391,19.44031093,CDMX
09016722511002634000039703M4,LA IMPERIAL,0-5,INTERIOR (AVENIDA PATRIOTISMO),101,,-99.20293475,19.44287431,CDMX
09016722518000053010017606S4,SUSHIITO,0-5,LAGO ZÚRICH,245,,-99.20293475,19.44287431,CDMX
09016722516000261001039700S7,DYNASTY CHENISE FODD EXPRESS,0-5,LAGO ZÚRICH,245,,-99.20293475,19.44287431,CDMX
09016722511002734000000000U2,MANDARIN HOUSE,0-5,LAGO ZÚRICH,245,,-99.20293475,19.44287431,CDMX
09016722511008242000070614S0,LA CONCHERIA,6-10,LAGO NEUCHATEL,498,498,-99.20120993,19.44368417,CDMX
09016722517002271000000000U2,ROSTICERIA POLLO NUEVO,0-5,PONIENTE 117,0,,-99.19914348,19.44425077,CDMX
09016722511008651000000000S2,RESTAURANTE URBAN LOUNGE,0-5,PEDREGAL,80,,-99.20399523,19.42280330,CDMX
09016722511007613000045326S3,SHUSHI ROLL NUEVO POLANCO,0-5,MIGUEL DE CERVANTES SAAVEDRA,397,,-99.20650806,19.44032075,CDMX
09016722110002243000000000U5,EL REY DEL SUADERO,11-30,HORACIO,206,0,-99.18447967,19.43299265,CDMX
09016722511006741000038049M3,CHILLAKILES,11-30,VOSGOS,105,,-99.20472199,19.42315717,CDMX
09016722511002971001000000U0,FONDA LA CABAÑA,0-5,LAGO MASK,391,2,-99.18601440,19.43846302,CDMX
09016722517001353010028213S9,CARLS JR CERVANTES,0-5,MIGUEL DE CERVANTES SAAVEDRA,397,,-99.20664781,19.44032615,CDMX
09016722211000501001003396S4,M00030 MC DONALDS 3 POLANCO,0-5,MANUEL ÁVILA CAMACHO,137,,-99.20966407,19.43338469,CDMX
09016722219002211000000000U1,RESTAURANTE VOSGOS,0-5,VOSGOS,115,0,-99.20454843,19.42287120,CDMX
09016722513004861000000000U7,GORDITAS Y QUESADILLAS SIN NOMBRE,0-5,BOULEVARD MANUEL AVILA CAMACHO,,,-99.20978559,19.43298089,CDMX
09016722514003061000000000U3,TORTAS LAS MAMALONAS,0-5,BOULEVARD MANUEL AVILA CAMACHO,,,-99.20980471,19.43301711,CDMX
09016722514006911000000000U6,TAQUERIA SIN NOMBRE,0-5,LAGO HIELMAR,101,,-99.19204145,19.44381289,CDMX
09016722211000612000003404S9,15672 PABELLON POLANCO,0-5,EJÉRCITO NACIONAL MEXICANO,1014,,-99.20822019,19.43849349,CDMX
09016722514003181000000000U9,TAQUERIA SUPER TACOS,0-5,BOULEVARD MANUEL AVILA CAMACHO,0,,-99.20982005,19.43304616,CDMX
09016722511004152011028206S5,OPERADORA Y ADMINISTRADORA DE RESTAURANTES GIGANTE,0-5,MIGUEL DE CERVANTES SAAVEDRA,397,,-99.20693069,19.44033708,CDMX
09016722511009503000000000S4,OJO DE AGUA,11-30,PRESIDENTE MASARYK,76,,-99.18422956,19.43123803,CDMX
09016722511007513000000000U5,LA VID ARGENTINA POLANCO,11-30,SUDERMAN,336,,-99.18411776,19.43180347,CDMX
09016722516000121000000000U3,SUBWAY,0-5,LAGO MAYOR,320,,-99.18680643,19.44011872,CDMX
09016722514006881000000000U1,LOS COMPADRES,0-5,PONIENTE 117,0,224,-99.19913709,19.44469663,CDMX
09016722110002133001000000U8,CALDOS RIESI,31-50,EJERCITO NACIONAL MEXICANO,1014,0,-99.20836118,19.43850262,CDMX
09016722511008372000094948S5,FONDA TROTAMUNDO,6-10,PASEO DE LAS PALMAS,260,,-99.20975298,19.43038822,CDMX
09016722511003471001000000U0,LOMAS CAFE,31-50,ALICAMA,38,0,-99.20428931,19.42237306,CDMX
09016722219009552000000000U1,LA MANDARINA,6-10,PRESA LA ANGOSTURA,18,0,-99.20783735,19.43945650,CDMX
09016722110002824000000000U2,CALDOS D LEO,31-50,EJERCITO NACIONAL MEXICANO,1014,0,-99.20844729,19.43850820,CDMX
09016722211000562001000000U6,SUBWAY,6-10,PASEO DE LAS PALMAS,250,4,-99.20983951,19.43033470,CDMX
09016722219005571000000000U5,TAQUERIA BELTRAN,0-5,TECAMACHALCO,0,,-99.21010269,19.43330663,CDMX
09016722110004061001003761S9,OLIVE GARDEN SANTA FE,0-5,PASEO DE LA REFORMA,400,,-99.18657673,19.42502514,CDMX
09016722514007672000000000U3,TAQUERIA SIEMBRA,6-10,ISAAC NEWTON,256,,-99.18461267,19.43680747,CDMX
09016722516000303010028189S7,MR SUSHI PRADO NORTE,0-5,PRADO NORTE,343,,-99.20931313,19.42814754,CDMX
09016722512001272000000000U2,SHEKINAH MAR Y TIERRA,6-10,LUIS VIVES,8,3,-99.20932259,19.43709169,CDMX
09016722513001052000000000U6,ANTOJITOS MEXICANOS,6-10,EJERCITO NACIONAL MEXICANO,0,,-99.20866652,19.43851982,CDMX
09016722514003771001000000U7,TACOS LA BOMBILLA,0-5,RIO SAN JOAQUIN,6101,0,-99.20004375,19.44485123,CDMX
09016722513003881000000000U6,ANTOJITOS MEXICANOS SIN NOMBRE,0-5,SUDERMAN,0,,-99.18400738,19.43543513,CDMX
09016722110000371001002563S6,TOKS,0-5,PASEO DE LAS PALMAS,239,,-99.21014896,19.43043269,CDMX
09016722511007396000000000U5,ALMEJA POLANSKY,0-5,SUDERMAN,156,,-99.18396419,19.43535510,CDMX
09016722513005261000000000U9,PANADERIA FLORES,0-5,LAGO GINEBRA,132,0,-99.19640524,19.44528336,CDMX
09016722518000701000000000U8,COCINA ECONOMICA,0-5,PONIENTE 117 A,217,,-99.19943909,19.44509184,CDMX
09016722514002711000000000U4,TACOS EL MORENO,0-5,LAGO GINEBRA,142,0,-99.19673931,19.44530593,CDMX
09016722110001593000000000S4,BARRIO NORTE,11-30,PRADO NORTE,314,0,-99.20940353,19.42777004,CDMX
09016722514007391000000000S0,LAS TORTUGAS DE POLANCO,0-5,FRANCISCO AGUIAR Y SEIJAS,42,,-99.20471637,19.42216792,CDMX
09016722518002181000000000U1,DOS7DOS,0-5,ISAAC NEWTON,272,0,-99.18438727,19.43699156,CDMX
09016722516001423000028155S2,GREEN GRASS PALMAS,0-5,PASEO DE LAS PALMAS,275,,-99.21023345,19.43037975,CDMX
09016722511009222000000000M1,PREPARACION DE ALIMENTOS GRUPO ALTO,6-10,PRESIDENTE MASARYK,61,11,-99.18361541,19.43137818,CDMX
09016722212006121000000000U3,COCINA ECONOMICA COCINA RUIZ,0-5,PONIENTE 117,218,,-99.19912029,19.44520372,CDMX
09016722514007381000000000U1,TACOS EL CHINO,0-5,PONIENTE 117,223,,-99.19905085,19.44524784,CDMX
09016722110000742001000000U8,RESTAURANTE CASA ELEFANTE COMIDA HINDU,0-5,ISAAC NEWTON,280,,-99.18430012,19.43706275,CDMX
09016722511002553000069351M6,RESTAURANTE DE COMIDA ESPAÑOLA EL SELLA,11-30,TORCUATO TASSO,315,0,-99.18345068,19.43256138,CDMX
09016722517001701000000000U9,HAMBURGUESAS Y TORTAS SIN NOMBRE,0-5,KIOSKO,0,,-99.19855301,19.41982519,CDMX
09012722110001274002002491M0,RESTAURANTES SANBORNS CAFE,0-5,LAGO ZURICH,245,,-99.20287295,19.44419660,CDMX
09016722511008091000000000U1,EL BUEN SAZON,0-5,NORTE 4,231,117,-99.19864805,19.44538712,CDMX
09016722511008443000000000U4,CATORZE LA OTRA ESQUINA MEDITERRANEA,11-30,PRESIDENTE MASARYK,0,,-99.18348175,19.43137527,CDMX
09016722110001353000000000U3,RESTAURANTE CHINA GIRL,11-30,PRADO NORTE,370,0,-99.20958573,19.42772756,CDMX
09016722110002744001007327S2,MI GUSTO ES POLANCO,0-5,TORCUATO TASSO,324,,-99.18338326,19.43236798,CDMX
09016722511009161000000000U1,AXOLI ROSTICERIA,0-5,TORCUATO TASSO,152,,-99.18338518,19.43218857,CDMX
09016722516001673000000000U2,FRANQUICIAS DE COMIDA RAPIDA RED ROMBO GROUP,11-30,TECAMACHALCO,14,,-99.21060995,19.43323156,CDMX
09016722516001594000000000U0,OPERADORA GOURMET EMG,31-50,TECAMACHALCO,14,1,-99.21060995,19.43323156,CDMX
09016722513000441000000000U2,VENTA DE TOSTADAS,0-5,NORTE 4,5996,0,-99.19886691,19.44540644,CDMX
09016722516001152000000000S7,CHINA SHING,11-30,TORCUATO TASSO,152,,-99.18338800,19.43192585,CDMX
09016722514003681000000000U8,TACOS KAN,0-5,LUIS VIVES,0,,-99.20919870,19.43839428,CDMX
09016722511006501000000000U1,RESTAURANTE LA TEHUANITA,0-5,LAGO WENNER,59,0,-99.19481381,19.44537714,CDMX
09016722219010092001000000U5,MURAKAMI,11-30,TORCUATO TASSO,152,0,-99.18335026,19.43267804,CDMX
09016722514005131000000000U2,TACOS LOS PRIMOS,0-5,LAGO GINEBRA,0,0,-99.19276282,19.44492164,CDMX
09016722514001341000000000U1,TORTAS CALIENTES,0-5,LUIS VIVES,0,,-99.20919428,19.43848475,CDMX
09016461121002821010000000U0,CARNITAS EL GUERO,0-5,LAGO DE FONDO,190,0,-99.19745452,19.44557923,CDMX
09016722514001251000000000U2,TACOS LA SUEGRA,0-5,LAGO GINEBRA,,,-99.19262042,19.44490489,CDMX
09016722517001122000000000U8,RUBEN S HAMBURGERS,11-30,PRADO NORTE,349,341,-99.20971950,19.42774971,CDMX
09016722517001332000000000S3,HM COMIDA EXPRESS,0-5,EULER,152,,-99.18328822,19.43269963,CDMX
09016722511009863000000000M2,RESTAURANTE DE COMIDA MEXICANA ASADEROS GRILL,11-30,EULER,152,,-99.18328822,19.43269963,CDMX
09016722514005201000000000U3,TACOS SAN JOAQUIN,0-5,LAGO GINEBRA,0,0,-99.19236293,19.44487463,CDMX
09016722514005191000000000U6,SUPER TACOS DE GUISADO EL UNICORNIO,0-5,LAGO GINEBRA,0,0,-99.19229597,19.44486675,CDMX
09016722516001872000061238S0,HAMBURGUESAS HM EULER,0-5,Euler,152,,-99.18322524,19.43265897,CDMX
09016722516000053001003286S8,11011 PRADO NORTE,0-5,PRADO NORTE,365,,-99.20978383,19.42773319,CDMX
09016722514003901000000000U0,TORTAS EL DUENDE,0-5,LAGO GINEBRA,0,0,-99.19215356,19.44485001,CDMX
09016722513005731000000000U1,ANTOJITOS MEXICANOS SIN NOMBRE,0-5,LAGO GINEBRA,,,-99.19211487,19.44484546,CDMX
09016722511003035001000000U3,TONY ROMAS,0-5,PRESIDENTE MASARYK,52,,-99.18326044,19.43123887,CDMX
09016468311000172000000000S0,TAQUERIA LOS COMPADRES POLANCO,11-30,BOULEVARD MANUEL AVILA CAMACHO,160,0,-99.21076271,19.43387150,CDMX
09016722514005171000000000U8,ANTOJITOS MEXICANOS SIN NOMBRE,0-5,LAGO GINEBRA,0,0,-99.19197248,19.44482872,CDMX
09016722511009612000000000U3,RESTAURANTE DE COMIDA VIETNAMITA. PHO38 RESTAURANT VIETNAMITA,6-10,HORACIO,142,,-99.18316305,19.43290708,CDMX
09016722516001472000000000U9,HAMBURGESAS STRASSE BURGER,6-10,EULER,145,,-99.18312094,19.43265483,CDMX
09016722513004254000037877S5,LA CASA DE TOÑO,0-5,JAIME BALMES,11,17,-99.20998631,19.43724891,CDMX
09016722219000421001000000S8,EL FOGON MIXE,11-30,HORACIO,0,134,-99.18310602,19.43290282,CDMX
09016722511008393000000000U1,LA TRATTORIA GRATA,11-30,EULER,145,,-99.18305140,19.43262211,CDMX
09016722511006441000000000U0,COCINA PATI,0-5,LAGO GINEBRA,181,0,-99.19799643,19.44580594,CDMX
09016722517000222012003286S7,DOMINO S PIZZA CHIVATITO,0-5,CHIVATITO (1A SECC DEL BOSQUE DE),0,,-99.18736195,19.42301860,CDMX
09016722511008173000073317M7,VICOS GRILL KOSHER POLANCO,11-30,JAIME BALMES,8,5,-99.20991529,19.43764646,CDMX
09016722511000792001000000M2,COSECHA NATURAL,11-30,EULER,145,149,-99.18302304,19.43260357,CDMX
09016722516001462000000000S0,POPEYES,6-10,EULER,145,145,-99.18302304,19.43260357,CDMX
09016722412001071000003488S1,BISTRO CHAPULTEPEC,0-5,LAGO MAYOR,0,,-99.20047164,19.41972589,CDMX
09016722517002521000069790S0,POLLOS ESTILO SINALOA,0-5,ACUARIO,0,,-99.18732296,19.42298283,CDMX
09016722514007471000069790S0,TACOS AL PASTOR,0-5,ACUARIO,0,,-99.18732296,19.42298283,CDMX
09016722516001792000069790S0,HAMBURGUESAS DEL CHEF,6-10,ACUARIO,0,,-99.18732296,19.42298283,CDMX
09016722511000734000000000U4,RESTAURANTE BELVEDERE,31-50,PRESIDENTE MASARYK,48,0,-99.18304526,19.43123507,CDMX
09016431121000223000000000U8,COMISARIATO PROVEEDOR DE RESTAURANTES,11-30,LAGO LADOGA,249,,-99.19066561,19.44448454,CDMX
09016722514001771000000000U9,TACOS CHOLULA,0-5,LAGO HIELMAR,0,0,-99.19185738,19.44505939,CDMX
09016722514002841000000000U9,TACOS DE GUISADO MATIZ,0-5,LAGO HIELMAR,0,,-99.19163337,19.44498316,CDMX
09016722517002401000000000U5,HAMBURGUESAS Y HOT DOGS SIN NOMBRE,0-5,AVENIDA GRUTAS,,,-99.18505941,19.42542385,CDMX
09016722513005581000000000U0,VENTA DE TLAYUDAS SARA,0-5,AVENIDA GRUTAS,0,,-99.18505600,19.42538730,CDMX
09016722513005591000000000U9,VENTA DE TLAYUDAS SIN NOMBRE,0-5,AVENIDA GRUTAS,,,-99.18504802,19.42533418,CDMX
09016722518001301000000000U6,COMIDA CHINA CHAOTIAMEN HOT POT,11-30,EJERCITO NACIONAL MEXICANO,8,,-99.20973564,19.43856546,CDMX
09016722212004191000000000U8,LOS ALCATRACES,0-5,LAGO LADOGA,245,0,-99.19063639,19.44467462,CDMX
09016722517002551000000000U7,POLLOS ROSTIZADOS Y RANCHEROS MIL SABORES,0-5,PONIENTE 117,310,,-99.19901805,19.44597216,CDMX
09016722511008834000000000M4,RESTAURANT PALOMINOS,31-50,PASEO DE LAS PALMAS,340,1,-99.21091967,19.42975481,CDMX
09016722514008081000000000U6,VENTA DE TORTAS SIN NOMBRE,0-5,AVENIDA GRUTAS,,,-99.18503235,19.42524360,CDMX
09016722511010076000004193S8,RESTAURANTE EL BAJIO,0-5,Paseo de las Palmas,275,,-99.21101710,19.42996332,CDMX
09016722517002201000000000U9,HAMBURGUESAS Y HOT DOGS SIN NOMBRE,0-5,AVENIDA GRUTAS,,,-99.18502244,19.42519838,CDMX
09016722110003084000000000U2,PARRILLA ARGENTINA EL 10,11-30,LAGO ALBERTO,319,0,-99.18496654,19.43993170,CDMX
09016541310001632000070625S5,TEIKIT SUSHI,11-30,HORACIO,138,138,-99.18268616,19.43287138,CDMX
09016722514003141000000000U3,TORTAS EL CUÑADO,0-5,LAGO HIELMAR,0,0,-99.19182520,19.44527639,CDMX
09016722511009772000000000U5,PASTA BAR TRAVERTINO,6-10,AVENIDA CORDILLERA DE LOS ANDES,340,,-99.21077638,19.42885622,CDMX
09016722518004411000000000U0,COCINA NAKAT MAR Y TIERRA,0-5,AVENIDA CORDILLERA DE LOS ANDES,340,2,-99.21077638,19.42885622,CDMX
09016722517002191000000000U2,HAMBURGUESAS Y HOT DOGS SIN NOMBRE,0-5,AVENIDA GRUTAS,,,-99.18501037,19.42514240,CDMX
09016722513005751000000000U9,EL REMOLQUITO,0-5,JAIME BALMES,0,,-99.20993882,19.43846560,CDMX
09016722517002181000000000U3,HAMBURGUESAS,0-5,AVENIDA GRUTAS,0,,-99.18500497,19.42511443,CDMX
09016722516001491000000000U9,KAFFEE HAUSE,0-5,JAIME BALMES,11,25,-99.20997851,19.43845422,CDMX
09016722512000721000000000U9,TUNA BAR,11-30,LAGO ALBERTO,320,29,-99.18487111,19.43992200,CDMX
09016722517002171000000000U4,HAMBURGUESAS HOT DOGS,0-5,AVENIDA GRUTAS,0,,-99.18499823,19.42507950,CDMX
09016722511000084001002870S4,50 FRIENDS PRADO NORTE,0-5,PRADO NORTE,382,,-99.21036323,19.42753438,CDMX
09016722517000143010028213S5,CARLS JR HOMERO,0-5,HOMERO,109,,-99.18289071,19.43532106,CDMX
09016463211013954000000000U3,TIENDA DE ACCESORIOS DEPORTIVOS Y RESTAURANTE UNO BY REAL MADRID,31-50,PRESIDENTE MASARYK,29,,-99.18266061,19.43135950,CDMX
09016722110000051001003155S4,81248 VIPS PARQUES POLANCO,0-5,LAGO ALBERTO,320,,-99.18483218,19.43991804,CDMX
09016722516001601000000000U3,HAMBURGUESAS Y HOT DOGOS SIN NOMBRE,0-5,AVENIDA GRUTAS,,,-99.18498781,19.42502600,CDMX
09016722513003631000000000U5,TOSTADAS Y HUARACHES DE TOLUCA,0-5,AVENIDA GRUTAS,0,0,-99.18498269,19.42500674,CDMX
09016722511009322000000000U9,TEIKIT,6-10,LAGO ALBERTO,320,18,-99.18478515,19.43991325,CDMX
09016722511010153000000000U5,WINGSTOP PARQUES POLANCO,11-30,LAGO ALBERTO,320,,-99.18478515,19.43991325,CDMX
09016722516001882000000000U9,MEGABITE,6-10,LAGO ALBERTO,320,,-99.18478515,19.43991325,CDMX
09016722511009343000000000S5,UN LUGAR DE LA MANCHA,11-30,LAGO ALBERTO,320,31,-99.18478515,19.43991325,CDMX
09016722512001283000073428M9,COTORRITOS,11-30,LAGO ALBERTO,320,,-99.18478515,19.43991325,CDMX
09016722219011802000000000U6,TEIKIT SUSHI,11-30,PRADO NORTE,375,0,-99.21046914,19.42755729,CDMX
09016722513002761000000000U1,TLAYUDAS,0-5,AVENIDA GRUTAS,0,0,-99.18496794,19.42495126,CDMX
09016722219004261000000000U4,EL GRAN TACO COCINA ECONOMICA,0-5,GENERAL MARIANO ESCOBEDO,362,0,-99.18303626,19.43634456,CDMX
09016722511007882000000000U4,LA CASA DE TOFU,6-10,AVENIDA CORDILLERA DE LOS ANDES,375,,-99.21097820,19.42885656,CDMX
09016722513003621000000000U6,TLAYUDAS Y REFERESCOS,0-5,AVENIDA GRUTAS,0,0,-99.18494676,19.42487015,CDMX
09016461213001521000000000U2,PUESTO DE TORTAS Y HAMBURGUESAS JAZMIN,0-5,KIOSKO,40,,-99.19831060,19.41885096,CDMX
09016722518000511000000000U1,CAFE SOL,0-5,LAGUNA DE TERMINOS,154,0,-99.18963753,19.44452112,CDMX
09016722518004132000000000U2,CHEF TIBU,6-10,LAGO GINEBRA,214,,-99.19922838,19.44627173,CDMX
09016722514000801000000000U5,PUESTO DE TORTAS EL GAUCHO,0-5,NORTE 4,,,-99.20188105,19.44564217,CDMX
09016722110001643000000000U7,RESTAURANTE DE COMIDA CHINA MIRIWA,6-10,GENERAL MARIANO ESCOBEDO,394,0,-99.18276495,19.43570450,CDMX
09016722514002521000000000U7,PUESTO DE TACOS EL GAUCHO,0-5,NORTE 4,,,-99.20193862,19.44564592,CDMX
09016722110002844002000000U0,DECRAB RESTAURANTES,0-5,PRADO NORTE,310,,-99.21062695,19.42751679,CDMX
09016722514004341000000000U8,REGMA ENSALADAS,0-5,JOSE LUIS LAGRANGE,11,18,-99.21079953,19.43728206,CDMX
09016722511008691000000000U8,AJLA GOURMET,0-5,JOSE LUIS LAGRANGE,11,21,-99.21079953,19.43728206,CDMX
09016722517000412000000000M4,PECORINO PIZZA Y PASTA,11-30,JOSE LUIS LAGRANGE,39,39,-99.21079953,19.43728206,CDMX
09016722516001801000000000U9,TILUZ,0-5,JOSE LUIS LAGRANGE,11,68,-99.21079953,19.43728206,CDMX
09016722516001481000000000S0,RANCH BUGUER KOSHER,0-5,JOSE LUIS LAGRANGE,11,32,-99.21079953,19.43728206,CDMX
09016722511008054000000000S9,RESTAURANTE CARAJILLO,31-50,ENRIQUE WALLON,20,,-99.18239770,19.43123902,CDMX
09016722513000151000000000U7,ANTOJITOS YUCATECOS EL TURIX,0-5,BARRILACO,406,,-99.21081569,19.42788038,CDMX
09016722513002581000000000U3,TAQUERIA SIN NOMBRE,0-5,LAGO ALBERTO,0,,-99.18434992,19.43969936,CDMX
09016722511004592000000000U2,RESTAURANTE SABORES DE OAXACA EL HUAJE,11-30,LAGO GINEBRA,6010,,-99.19937244,19.44636930,CDMX
09016722110003214001002491S5,SANBORNS CAFE SUC MARIANO ESCOBEDO,0-5,GENERAL MARIANO ESCOBEDO,402,,-99.18249825,19.43505537,CDMX
09016722511008633000000000U0,RESTAURANTE CAPRI AUTENTICA COMIDA ITALIANA,11-30,SIERRA MOJADA,340,,-99.21121682,19.42887276,CDMX
09016722513000611000000000U0,COMESTIBLES ANTOJITOS Y FUENTE DE SODAS,0-5,AVENIDA HEROICO COLEGIO MILITAR,168,22,-99.18839245,19.42122350,CDMX
09016722412001061000003488S2,LAGO DE CHAPULTEPEC,0-5,LAGO MAYOR,0,,-99.19848878,19.41866615,CDMX
09016722212005581000000000U9,COCINA ECONOMICA MARI,0-5,LAGO GINEBRA,6010,,-99.19947511,19.44644479,CDMX
09016722511006691000039772M0,PORCO ROSSO POLANCO,0-5,EULER,119,,-99.18219083,19.43206312,CDMX
09016722513003541000000000U6,COMIDA CORRIDA Y ANTOJITOS MEXICANOS,0-5,AVENIDA HEROICO COLEGIO MILITAR,3,0,-99.18824783,19.42124463,CDMX
09016722219011022000000000U1,RESTAURANTE EL BUEN SAZON,6-10,PRESA DEL AZUCAR,32,0,-99.20935016,19.44039083,CDMX
09016722511010103000000000U0,RESTAURANTE DE COMIDA CHINA YUELU HOT POT,11-30,Spencer,16,0,-99.18215778,19.43211122,CDMX
09016561330000585011000000U9,MORTONS,31-50,PASEO DE LAS PALMAS,405,0,-99.21157591,19.42990005,CDMX
09016722219009772001000000U5,RESTAURANTE FONDA,0-5,EUCLIDES,5,0,-99.18234949,19.43499374,CDMX
09016722514007522000000000U0,RESTAURANTE JANO MARRANO,6-10,EULER,15,,-99.18214573,19.43203603,CDMX
09016722219010672001000000U4,TACOS Y TORTAS SIN NOMBRE,0-5,HORACIO,1836,,-99.21158569,19.43544707,CDMX
09016722517002151000000000U6,ROSTY POLLO HOT,0-5,LAGO HIELMAR,14,,-99.19151839,19.44578723,CDMX
09016722511004262000000000S2,STARBUCKS COFFEE MEXICO CHAPULTEPEC REFORMA,11-30,PASEO DE LA REFORMA,13,,-99.18472142,19.42449965,CDMX
09016722110000732000000000U9,RESTAURANTE DE COMIDA CHINA LONG MEN ZHEN,11-30,SPENCER,479,,-99.18204775,19.43227132,CDMX
09016722219002491000000000U9,ANTOJITOS MEXICANOS Y FUENTE DE SODAS,0-5,AVENIDA HEROICO COLEGIO MILITAR,160,0,-99.18797061,19.42127867,CDMX
09016722511000932001000000U4,JUISTER JUGOS Y BEBIDAS,6-10,PRESIDENTE MASARYK,18,,-99.18209944,19.43123601,CDMX
09016722517000023000054105S9,ROSTICERIA MOLINOS PRADO NORTE,0-5,PRADO NORTE,405,,-99.21096667,19.42743208,CDMX
09016722513001091000000000U4,ANTOJITOS MEXICANOS,0-5,AVENIDA GRUTAS,31,24,-99.18476386,19.42435219,CDMX
09016722513002191010000000U1,COCHITACOS,0-5,PRESA LAS VIRGENES,101,0,-99.20508341,19.44462192,CDMX
09016722511010312000000000U7,RESTAURANTE,6-10,GENERAL MARIANO ESCOBEDO,450,0,-99.18202196,19.43384127,CDMX
09016722110002734011000000U3,TACOS DON GUERO,0-5,EULER,0,,-99.18197000,19.43186614,CDMX
09016722514004672000000000U6,MASTER Y ALGO MAS,0-5,EUCLIDES,15,0,-99.18215655,19.43507110,CDMX
09016722212003131000000000U5,TORTAS Y AGUAS LA DELICIA,0-5,PRADO NORTE,411,0,-99.21104496,19.42741342,CDMX
09016722212005401000000000U0,SUPER TORTAS LOS GUEROS,0-5,HORACIO,1836,0,-99.21179607,19.43545402,CDMX
09016722514005181000000000U7,ANTOJITOS MEXICANOS,0-5,LAGO HIELMAR,,,-99.19171397,19.44602644,CDMX
09016621331000972001000000U5,JIMMBOY CAFE BISTRO,11-30,JOSE LUIS LAGRANGE,103,0,-99.21081304,19.43844221,CDMX
09016722110000121002003155S5,81028 VIPS EJERCITO NACIONAL,0-5,JOSÉ LUIS LAGRANGE,103,,-99.21080987,19.43850203,CDMX
09016722511009522000000000U4,RESTAURANTE SALCHICHAS Y CERVEZAS FRANKFURT,6-10,EULER,479,5,-99.18187033,19.43187064,CDMX
09016722514004214001000000U7,EL CALIFA,0-5,PASEO DE LAS PALMAS,425,,-99.21187986,19.42988891,CDMX
09016722511009171000000000S0,RESTAURANTE EL AUTENTICO PATO MANILLA,0-5,BARRILACO,414,,-99.21128540,19.42776913,CDMX
09016722511002181001000000U6,LA COCINA DE MAMA,6-10,EUCLIDES,14,0,-99.18204657,19.43518126,CDMX
09016722219005891000000000U7,ANTOJITOS MEXICANOS,0-5,AVENIDA GRUTAS,3,7,-99.18467872,19.42413989,CDMX
09016722511009662000000000U8,LA CHANA JUANA,6-10,BLAS PASCAL,,,-99.21179348,19.43604091,CDMX
09016722212004971000000000U3,ROSTICERIA NAUR,0-5,LAGO WENNER,106,0,-99.19459113,19.44688624,CDMX
09016541890000844010000000U8,LOS ARBOLITOS DE CAJEME,0-5,EULER,17,,-99.18175948,19.43173912,CDMX
09016722219002341000000000U6,ANTOJITOS MEXICANOS,0-5,AVENIDA GRUTAS,291,16,-99.18465413,19.42407859,CDMX
09016722513005211000000000U4,LOS HUARACHES DE CABRERA,0-5,DANIEL CABRERA,64,,-99.19397190,19.44681137,CDMX
09016722513002241001000000U4,RINCON BARRILACO,11-30,BARRILACO,416,0,-99.21141135,19.42773930,CDMX
09016722511006621000022688S7,MARIANO ESCOBEDO WINGSTOP,0-5,GENERAL MARIANO ESCOBEDO,419,,-99.18169333,19.43248329,CDMX
09016722514005651000000000U9,TACOS EL TIBURON,0-5,HORACIO,,,-99.21199194,19.43567738,CDMX
09016722514007611000000000U1,TAQUERIA ALEX,0-5,LAGO NAUR,100,,-99.19531735,19.44706773,CDMX
09016722513005251000000000U0,BIRRIA DON TOÑO,0-5,LAGO NAUR,63,,-99.19402189,19.44688903,CDMX
09016722514006931000000000U4,TACOS Y BURRITOS COCHI BABOY,0-5,HORACIO,0,,-99.21201104,19.43567786,CDMX
09016722219011892000000000U7,ANTOJITOS,0-5,AVENIDA GRUTAS,571,23,-99.18461313,19.42397637,CDMX
09016722514000501000000000U1,TACOS DE GUISADO,0-5,LAGO HIELMAR,0,0,-99.19167503,19.44628905,CDMX
09016722514001453011000000U4,TAQUERIA LA ONDA,11-30,BARRILACO,420,0,-99.21149668,19.42771909,CDMX
09016722511009511000000000U7,RESTAURANTE DON LECHUGON,0-5,LAGO WETTER,72,,-99.19339740,19.44679143,CDMX
09016722517001551000000000U8,PIZZAS SIN NOMBRE,0-5,LAGO NAUR,,,-99.19442981,19.44700002,CDMX
09016722219011692000000000U1,TACOS EL TORITO,0-5,LAGO NAUR,56,0,-99.19351671,19.44684306,CDMX
09016722511002842001000000U3,FONDA EL PAVITO,6-10,LAGO NAUR,63,0,-99.19386830,19.44692509,CDMX
09016722514005661000000000U8,TACOS DE CARNITAS MAGO,0-5,HORACIO,,,-99.21207786,19.43567953,CDMX
09016722513001281000000000U1,HUARACHES RAFA,0-5,LAGO NAUR,72,0,-99.19336343,19.44682635,CDMX
09016722513003531000000000U7,COMIDA CORRIDA Y ANTOJITOS MEXICANOS,0-5,CALZADA DE LOS FILOSOFOS,1,1,-99.18733168,19.42118895,CDMX
09016722516000641000000000U0,ANTOJITOS MEXICANOS,0-5,AVENIDA GRUTAS,105,0,-99.18458412,19.42390404,CDMX
09016722514005631000000000U1,TACOS DE MAGO,0-5,HORACIO,,,-99.21212559,19.43568072,CDMX
09016722514008091000000000U5,TORTAS EL CHAVITO,0-5,EULER,0,,-99.18155399,19.43161513,CDMX
09016722219005681000000000U2,CARNITAS COCHINITO FELIZ,0-5,LAGO ERNE,105,0,-99.19540046,19.44721907,CDMX
09016722514006141000000000U0,LAS VERDADERAS TORTAS,0-5,LAGO ALBERTO,,,-99.18335887,19.43957703,CDMX
09016722212005211000000000U3,EL RINCONCITO,0-5,LAGO YOJOA,534,,-99.20185771,19.44657614,CDMX
09016722514006131000000000U1,TACOS DE GUISADO,0-5,EJERCITO NACIONAL MEXICANO,253,0,-99.18265339,19.43824024,CDMX
09016722514005641000000000U0,ANTOJITOS MEXICANOS MAGO,0-5,HORACIO,,,-99.21220197,19.43568263,CDMX
09016722212000311000000000U6,TAQUERIA PENSIL,0-5,LAGO NAUR,33,0,-99.19285735,19.44681703,CDMX
09016722517000581000000000U6,PIZZAS NAUR,0-5,LAGO NAUR,33,2,-99.19285735,19.44681703,CDMX
09016722219001671000000000U7,RESTAURANTE EL CONTADERO,0-5,LAGO NAUR,24,,-99.19229676,19.44667814,CDMX
09016722514007981000000000U8,TORTAS MATEO,0-5,NINGUNO,,,-99.19611955,19.41784390,CDMX
09016722514002221000000000U4,LA GALERIA DEL SABOR 2,0-5,DANIEL CABRERA,46,,-99.19392321,19.44709210,CDMX
09016722511001304001000000U5,EL DIEZ,0-5,PRADO NORTE,450,0,-99.21152584,19.42724010,CDMX
09016722518001591000000000U2,COCINA ECONOMICA LILI,0-5,LAGO WETTER,68,0,-99.19335481,19.44701721,CDMX
09016722511008251000000000U1,COMIDA CHINA HONG KONG,0-5,LAGO WETTER,68,,-99.19335481,19.44701721,CDMX
09016722518003091000000000U1,COMIDACORRIDA Y ANTOJITOS MEXICANOS,0-5,CALZADA DE LOS FILOSOFOS,2,2,-99.18732456,19.42094384,CDMX
09016722514005571000000000U9,BIRRIA EL GALLITO,0-5,BOULEVARD MANUEL AVILA CAMACHO,,,-99.21238675,19.43533945,CDMX
09016722514007961000000000U0,PUESTO DE TORTAS Y TACOS LETY,0-5,NINGUNO,,,-99.19619203,19.41776698,CDMX
09016722518003081000000000U2,RESTAURANTES QUE PREPARAN OTRO TIPO DE ALIMENTOS PARA LLEVAR SIN NOMBRE,0-5,CALZADA DE LOS FILOSOFOS,6,6,-99.18732350,19.42090766,CDMX
09016722514007661000000000U6,CARNITAS RICKY,0-5,LAGO ALBERTO,,,-99.18311117,19.43952024,CDMX
09016461110016691000000000U4,ROCO PIZZA,0-5,LAGO NAUR,171,0,-99.19796481,19.44747721,CDMX
09016722511009871000000000U5,CALDOS DE GALLINA SIN NOMBRE,0-5,LAGO ALBERTO,0,,-99.18303464,19.43950270,CDMX
09016722514003151000000000U2,TAQUERIA LA CURVA,0-5,LAGO ERNE,145,,-99.19534354,19.44746189,CDMX
09016722513001941000000000U0,BARBACOA,0-5,LAGO NAUR,160,0,-99.19844207,19.44749561,CDMX
09016722514008131000000000U9,TACOS SIN NOMBRE,0-5,3,566,,-99.20312668,19.44640165,CDMX
09016722514007991000000000U7,TACOS EL GIM,0-5,LAGO ALBERTO,,,-99.18297826,19.43948978,CDMX
09016722511001654001000000U3,RESTAURAURANTE CRAMSA,0-5,EJÉRCITO NACIONAL MEXICANO,1125,,-99.21133137,19.43892323,CDMX
09016722212007991000000000U8,TORTERIA ANAHUAC,0-5,LAGO BOLSENA,10,0,-99.19137187,19.44662057,CDMX
09016722514005581000000000U8,ANTOJITOS MEXICANOS,0-5,SIERRA MOJADA,0,,-99.21272105,19.43089497,CDMX
09016722219000891000000000U2,FONDA DOÑA NICO,0-5,LAGO AMMER,0,178,-99.19457405,19.44743511,CDMX
09016722219004111000000000U1,ANTOJITOS,0-5,LAGO AMMER,0,279,-99.19457405,19.44743511,CDMX
09016722219005951000000000U9,VENTA DE BARBACOA DON ADRIAN,0-5,LAGO AMMER,0,180,-99.19457405,19.44743511,CDMX
09016722212004101000000000U7,COCINA ECONOMICA SIN NOMBRE,0-5,LAGO AMMER,0,176,-99.19457405,19.44743511,CDMX
09016722212003731000000000U2,COCINA ECONOMICA LA GUERA,6-10,LAGO AMMER,0,174,-99.19457405,19.44743511,CDMX
09016722219008681000000000U9,ANTOJITOS MEXICANOS,0-5,LAGO AMMER,0,283,-99.19457405,19.44743511,CDMX
09016722219003601000000000U2,COCINA EL MANA,0-5,LAGO AMMER,0,39,-99.19457405,19.44743511,CDMX
09016722219010892001000000U8,CARNITAS EL KUINITO,11-30,LAGO AMMER,0,266,-99.19457405,19.44743511,CDMX
09016722219001551000000000U1,ANTOJITOS YOLA,0-5,LAGO AMMER,,5,-99.19457405,19.44743511,CDMX
09016722517000621000000000U0,ROSTICERIA ALEX,0-5,LAGO AMMER,0,124,-99.19457405,19.44743511,CDMX
09016722513002672000000000U0,CITY CAFE EL SOPE,0-5,NINGUNO,,0,-99.20247748,19.41851549,CDMX
09016722514007821000000000U6,DON TACO,0-5,CASA AMARILLA,141,,-99.19228617,19.44696076,CDMX
09016722219009362010000000U5,ANTOJITOS MEXICANOS,0-5,CALZADA DE LOS FILOSOFOS,3,3,-99.18731717,19.42069011,CDMX
09016722514005591000000000U7,TACOS DE SUADERO Y LONGANIZA,0-5,SIERRA MOJADA,0,,-99.21275856,19.43088583,CDMX
09016722511009731000000000U1,DESAYUNOS Y COMIDAS EL SIRENITO,0-5,CASA AMARILLA,146,0,-99.19224422,19.44696121,CDMX
09016722310000382000024076S9,GH DINNING HOSPITALITY,0-5,LAGO BOLSENA,12,,-99.19112631,19.44658781,CDMX
09016722514004041000000000U4,TACOS DE GUISADO EL CHINO,0-5,MONTE GRAMPIANOS,0,,-99.21283594,19.43094024,CDMX
09016722511002822000000000U5,RESTAURANTE PISCO GRILL,11-30,3 PONIENTE  THIERS,232,0,-99.18134399,19.43550624,CDMX
09016722110003485001002163S1,LOS CANARIOS ODEON PALMAS,0-5,PASEO DE LAS PALMAS,530,202,-99.21264654,19.42962085,CDMX
09016466211000862000000000U0,SERVICIOS PARA RESTAURANTES,6-10,KELVIN,26,1,-99.18119627,19.43473056,CDMX
09016722517000821001000000U6,CAFE LA FE,6-10,MIGUEL DE CERVANTES SAAVEDRA,507,0,-99.21007081,19.44130241,CDMX
09016722514007751000000000U5,SUPER TORTAS,0-5,LAGO ALBERTO,,,-99.18273961,19.43943507,CDMX
09016722513003521000000000U8,COCINA ADRIANA,0-5,CALZADA DE LOS FILOSOFOS,8,0,-99.18731164,19.42049971,CDMX
09016722219001071000000000U0,ANTOJITOS MEXICANOS COCINA DOÑA PATY,0-5,CALZADA DE LOS FILOSOFOS,8,8,-99.18731164,19.42049971,CDMX
09016722514002601000000000U7,TACOS LOS MAMALONES,6-10,GENERAL DIEGO GARCIA CONDE PALOMAS,0,0,-99.21282643,19.43502674,CDMX
09016722514007601000000000U2,EL BRAVO COMIDA MEXICANA,0-5,LAGO BOLSENA,37,,-99.19021048,19.44639614,CDMX
09016722219000981000000000U1,CARNITAS FANY,0-5,LAGO BOLSENA,37,0,-99.19021048,19.44639614,CDMX
09016722212007801000000000U9,COCINA ECONOMICA RUBENS,0-5,LAGO BOLSENA,37,0,-99.19021048,19.44639614,CDMX
09016722511007911000000000U1,LAS CHABELITAS,0-5,LAGO ZUMPANGO,114,,-99.19892780,19.44772725,CDMX
09016722513001551000000000U7,ANTOJITOS MEXICANOS,0-5,CALZADA DE LOS FILOSOFOS,4,0,-99.18730980,19.42043638,CDMX
09016722212007021000000000U4,TAQUERIA 5 DE MAYO,0-5,LAGO CHAPULTEPEC,186,0,-99.19966106,19.44765732,CDMX
09016722518002751000000000U1,COCINA GYM,0-5,LAGO CHAPULTEPEC,179,0,-99.19952690,19.44770510,CDMX
09016722219001981000000000U0,ANTOJITOS MEXICANOS,0-5,AVENIDA GRUTAS,289,27,-99.18433475,19.42311895,CDMX
09016722513001751000000000U3,ANTOJITOS MEXICANOS SIN NOMBRE,0-5,CALZADA DE LOS FILOSOFOS,5,9,-99.18730767,19.42036358,CDMX
09016722517002542000000000S6,RESTAURANTE ITALIANO SAN GIORGIO PIZZAS,6-10,RUBEN DARIO,13,,-99.18099933,19.43048009,CDMX
09016722513003921000000000U0,HUARACHES VALENTE,6-10,LAGO AZUL,221,0,-99.19932086,19.44783488,CDMX
09016722514003661000000000U0,LONCHERIA 5 DE MAYO,0-5,LAGO CHAPULTEPEC,190,0,-99.20015638,19.44772247,CDMX
09016722518001051000000000U7,COCINA ECONOMICA LA ESQUINA DEL SABOR,0-5,LAGO BOLSENA,54,0,-99.18974260,19.44641017,CDMX
09016722513004501000000000U9,HUARACHES CHAPULTEPEC,0-5,LAGO CHAPULTEPEC,194,,-99.20029022,19.44773939,CDMX
09016722514004612000069194M2,GORDO KINGS TAQUERIA & GRILL,6-10,GUTENBERG,232,0,-99.18073315,19.43125023,CDMX
09016722514000244000000000U8,TAQUERIA  FAROLITO PRADO NORTE,6-10,PRADO NORTE,480,0,-99.21226566,19.42706666,CDMX
09016722511008021000000000U8,COMEDOR COMUNITARIO PARA EL BIENESTAR,0-5,DANIEL CABRERA,28,,-99.19379952,19.44780517,CDMX
09016722512001514000000000S7,RESTAURANTE BAR,31-50,General Mariano Escobedo,528,0,-99.18075563,19.43086354,CDMX
09016722513000741000000000U5,ANTOJITOS MEXICANOS,0-5,AVENIDA GRUTAS,619,15,-99.18425458,19.42286357,CDMX
09016722513004491000000000U3,POZOLERIA LA ABUELITA,0-5,LAGO CHAPULTEPEC,193,,-99.20029833,19.44781133,CDMX
09016722511007901000000000U2,4 EVER FOOD,0-5,LAGO CHAIREL,113,0,-99.19977720,19.44798855,CDMX
09016722514007151000000000U8,A TACO,0-5,PRESA LAS PILAS,126,,-99.20893964,19.44337601,CDMX
09016722219008261000000000U0,HUARACHERIA 5 DE MAYO,6-10,LAGO SAN PEDRO,118,0,-99.20033327,19.44791738,CDMX
09016722219001311001000000U0,HUARACHES GUILLE,0-5,LAGO CHAPULTEPEC,203,0,-99.20070747,19.44785953,CDMX
09016722518004891000000000U3,COMIDA CORRIDA Y ANTOJITOS MEXICANOS QUE TOKI,0-5,CALZADA DE LOS FILOSOFOS,16,,-99.18729476,19.41991945,CDMX
09016722511008142000000000U2,RESTAURANTE COMIDA ITALIANA SOLE-PIZZA PASTA E AMORE,6-10,GENERAL MARIANO ESCOBEDO,539,,-99.18067556,19.43017315,CDMX
09016722511001421001000000U7,SAL Y PIMIENTA,6-10,PRESA ENDHO,17,0,-99.21035444,19.44191363,CDMX
09016722219006291000000000U9,ANTOJITOS MEXICANOS,0-5,AVENIDA GRUTAS,279,11,-99.18420195,19.42255353,CDMX
09016722219010482001000000U8,RESTAURANTE HOSTERIA DE LA SELVA NEGRA,6-10,JUAN RACINE,108,,-99.21245572,19.43840933,CDMX
09016722219001321000000000U9,RESTAURANTE BENIS BAR,0-5,LAGO GINEBRA,362,0,-99.20174275,19.44771841,CDMX
09016722518000811001000000U5,COCINA Y TAQUERIA YOLA,0-5,6,394,0,-99.20336640,19.44719144,CDMX
09016722511009721000000000U2,RESTAURANTE HUANG JIA LU JIANG,0-5,KEPLER,94,,-99.18034900,19.43305728,CDMX
09016722513005681000000000U8,PAN CHINOS,0-5,LAGO BOLSENA,87,0,-99.18842838,19.44618207,CDMX
09016722511005431000000000U2,EL SECRETO ES EL SABOR,0-5,LAGO BOLSENA,87,0,-99.18842838,19.44618207,CDMX
09016722516001571000000000U8,HAMBURGUESAS GARDUÑOS,0-5,6,393,,-99.20337625,19.44723361,CDMX
09016722219002161000000000U8,ANTOJITOS MEXICANOS,0-5,AVENIDA GRUTAS,23,5,-99.18419310,19.42243572,CDMX
09016722110001793000000000U0,COMERCIAL LA VIÑA,11-30,GENERAL MARIANO ESCOBEDO,543,0,-99.18054860,19.42988051,CDMX
09016461122003081000000000U8,POLLOS ROSTIZADOS Y ANTOJITOS MEXICANOS,0-5,PASEO DEL QUIJOTE,13,13,-99.18745064,19.41959754,CDMX
09016722514005551000000000U1,SUPER TORTAS GIGANTES,0-5,AVENIDA GRUTAS,8,0,-99.18419034,19.42239889,CDMX
09016722514000061000000000U6,TORTAS HOTSTREET,0-5,COPERNICO,0,0,-99.18046998,19.43018186,CDMX
09016722513002331000000000U3,ANTOJITOS MEXICANOS SIN NOMBRE,0-5,AVENIDA GRUTAS,143,15,-99.18418899,19.42238090,CDMX
09016722514003921000000000U8,PUESTO DE TORTAS LA GRAN TORTA,0-5,LAGO ALBERTO,,,-99.18180728,19.43931205,CDMX
09016722212002661000000000U2,COCINA ECONOMICA EL RINCON DEL SABOR,0-5,LAGO BOLSENA,186,0,-99.18812368,19.44613953,CDMX
09016722212005971000000000U2,TORTAS Y CAFETERIA,0-5,AVENIDA GRUTAS,19,,-99.18417946,19.42225408,CDMX
09016722511008161000000000U2,LAS TRES HUASTEQUITOS,0-5,LAGO ZURICH,1,0,-99.20196972,19.44786652,CDMX
09016722513003552000000000U3,COMIDA CORRIDA Y ANTOJITOS MEXICANOS,0-5,PASEO DEL QUIJOTE,40,0,-99.18729014,19.41950378,CDMX
09016722515008113000000000U4,RESTAURANTE BECCO CAFE,11-30,PRADO NORTE,525,4,-99.21282908,19.42698914,CDMX
09016722514005291000000000U4,BURRITOS YULI,0-5,LAGO ALBERTO,,,-99.18161537,19.43926112,CDMX
09016722517001671000000000U4,PIZZA DEL BARRIO,0-5,LAGO ZURICH,78,4,-99.20192584,19.44803746,CDMX
09016722513004441000000000U8,LONCHERIA MERCADO,0-5,EJERCITO NACIONAL MEXICANO,2,,-99.21278064,19.43868642,CDMX
09016722511006551000000000U6,YOLOTZIN BARBACOA Y XIMBO,0-5,LAGUNA DE TERMINOS,198,,-99.18470516,19.44379524,CDMX
09016722514005121000000000U3,TAQUERIA LOS GUEROS,0-5,LAGO BOLSENA,0,,-99.18756174,19.44607189,CDMX
09016722511008541000000000U5,RESTAURANTE EL RINCON DEPALMAS,0-5,TECAMACHALCO,116,,-99.21405659,19.43240490,CDMX
09016722511007831000000000U1,ALBEK CAFE,0-5,MONTE ATHOS,105,10,-99.20927515,19.42133947,CDMX
09016722512000421000000000U6,VENTA DE PESCADO Y MARISCOS PREPARDO,0-5,MONTE ATHOS,105,4,-99.20927515,19.42133947,CDMX
09016722513005421000000000U9,ANTOJITOS BOLSENA,0-5,LAGO BOLSENA,113,,-99.18750424,19.44606460,CDMX
09016722513002631000000000U6,CARNITAS EL PEQUE,0-5,LAGO CUPATITZIO,82,0,-99.19829963,19.44876769,CDMX
09016722219008221000000000U4,ANTOJITOS MEXICANOS SIN NOMBRE,0-5,CALZADA DE LOS FILOSOFOS,47,,-99.18726654,19.41921190,CDMX
09016722511004791000000000U0,RESTAURANTE CAFETERIA LA AUGUSTA,0-5,GENERAL MARIANO ESCOBEDO,189,0,-99.18330540,19.44239921,CDMX
09016722516000891000000000U1,ANTOJITOS MAGOS,0-5,LAGO ALBERTO,,,-99.18130311,19.43917826,CDMX
09016722514001971000000000U5,PUESTO DE TACOS DE GUISADO JULY,0-5,LAGO ALBERTO,,,-99.18126518,19.43916820,CDMX
09016722518003761000000000U9,RESTAURANTE,0-5,LEIBNITZ,173,0,-99.17990741,19.43481421,CDMX
09016722518004431000000000U8,RESTAURANTE EL PORTALITO,0-5,ROSEDAL,37,,-99.21421889,19.43146500,CDMX
09016722219002001010000000U6,ANTOJITOS DEL TIO,0-5,EJERCITO NACIONAL MEXICANO,0,,-99.21302891,19.43868652,CDMX
09016722219010612000000000U0,RESTAURANTE ANITA,0-5,LAGO BOLSENA,121,0,-99.18704728,19.44600713,CDMX
09016722219003441000000000U3,CALDOS BANUELOS,0-5,EJERCITO NACIONAL MEXICANO,0,,-99.21305756,19.43868653,CDMX
09016722219004191010000000U3,ANTOJITOS MEXICANOS,0-5,AVENIDA HEROICO COLEGIO MILITAR,604,6,-99.18414401,19.42155700,CDMX
09016722515000972000000000U1,RESTAURANTE,11-30,PRADO SUR,404,16,-99.20997167,19.42152926,CDMX
09016722516001041000000000U2,ANTOJITOS MEXICANOS,0-5,2,503,0,-99.20313346,19.44810354,CDMX
09016722511004671000000000U4,RESTAURANTE ELESPEJO,0-5,LAGO ERNE,91,0,-99.19487251,19.44905735,CDMX
09016722511001531000000000U3,LONCHERIA BAÑELOS,0-5,EJERCITO NACIONAL MEXICANO,11150,0,-99.21327737,19.43868663,CDMX
09016722511007813000000000U9,CAFE TOSCANO,11-30,MONTE ATHOS,109,,-99.20960857,19.42108693,CDMX
09016722514006731000000000U8,TAQUERIA DON LUCAS,0-5,LAGO ISEO,254,0,-99.18219660,19.44153575,CDMX
09016722518001711001000000U6,LOLA COMIDA CASERA,0-5,LEIBNITZ,271,0,-99.17974346,19.43586246,CDMX
09016722110001863001000000U1,RESTAURANTE LA BODEGA DE LOS MALAZZO,51-100,LAGO ISEO,298,0,-99.18172372,19.44089287,CDMX
09016722514002261000000000U0,TORTERIA Y TACOS MAMA MAGO,0-5,1,510,0,-99.20370795,19.44806008,CDMX
09016722511005562000000000U4,COCINA ECONOMICA EL RESTAURANTICO,6-10,TECAMACHALCO,29,,-99.21468254,19.43198663,CDMX
09016722516001431000000000U5,BURGER,0-5,LAGUNA DE MAYRAN,274,,-99.18195441,19.44146133,CDMX
09016722518002211000000000U6,EL BUEN SASZON DE GINEBRA,0-5,LAGO GINEBRA,406,0,-99.20355371,19.44832618,CDMX
09016722512001261000000000U5,RESTAURANTE BAJA DELI,0-5,SIERRA MUINURA,147,,-99.21481991,19.43187288,CDMX
09016722518002761000000000U0,SASON CATACHO,0-5,LAGO SUIZA,219,0,-99.19952919,19.44935314,CDMX
09016461213000301000000000U0,ANTOJITOS MEXICANOS,0-5,AVENIDA HEROICO COLEGIO MILITAR,246,11,-99.18324102,19.42180225,CDMX
09016722513003571000000000U3,ANTOJITOS Y COMIDA MEXICANA,0-5,CALZADA DE LOS FILOSOFOS,67,0,-99.18723983,19.41839610,CDMX
09016722518001511000000000U0,LAS TRES PALOMAS,0-5,TECAMACHALCO,162,0,-99.21487202,19.43173958,CDMX
09016722219001661000000000U8,CARNITAS EL PEQUE,0-5,LAGO SAN PEDRO,70,0,-99.19996943,19.44934240,CDMX
09016722514002611000000000U6,TAQUERIA COCHINITA,0-5,LAGO SAN PEDRO,72,0,-99.19996016,19.44937870,CDMX
09016722514002181000000000U0,TORTAS EL HIPODROMO,0-5,EJERCITO NACIONAL MEXICANO,0,0,-99.21377409,19.43868684,CDMX
09016722517001841000000000U3,BIG BURGER,0-5,LAGO BOLSENA,165,,-99.18558007,19.44580870,CDMX
09016722514007701000000000U0,TAQUERIA LOS CHINOS,0-5,CERRADA LAGO SAN PEDRO,42,,-99.19749766,19.44968324,CDMX
09016722110002603000000000U0,CAFETERIA CAFE VIDA,11-30,PRADO NORTE,560,0,-99.21393405,19.42670625,CDMX
09016722511003023001000000U9,RESTAURANTE TANDOOR,11-30,COPERNICO,156,0,-99.17902243,19.43043517,CDMX
09016722516000971000000000U1,ANTOJITOS Y QUESADILLAS,0-5,BOULEVARD MANUEL AVILA CAMACHO,0,0,-99.21400882,19.43853414,CDMX
09016722513001071000000000U6,VENTA DE QUESADILLAS,0-5,TECAMACHALCO,168,,-99.21509425,19.43155205,CDMX
09016722513004821000000000U1,TACOS DONA GUERRA,0-5,LAGUNA DE MAYRAN,276,,-99.18141131,19.44138860,CDMX
09016722517002141000000000U7,4.80 PIZZA,0-5,LAGUNA DE MAYRAN,276,,-99.18141131,19.44138860,CDMX
09016722514005681000000000U6,TACOS EL PARIENTE,0-5,BOULEVARD MANUEL AVILA CAMACHO,0,0,-99.21402516,19.43852795,CDMX
09016722219005381000000000U9,TORTILLA Y SALSA RESTAURANTE,0-5,LAGO MASK,168,1,-99.18493176,19.44546513,CDMX
09016722516001452000000000U1,BURGERS,6-10,LAGO ISEO,258,,-99.18212932,19.44249519,CDMX
09016722514005151000000000U0,TACOS GUERRA,0-5,LAGUNA DE MAYRAN,278,0,-99.18137261,19.44138341,CDMX
09016722517002071000000000U6,PIZZA 480,0-5,LAGUNA DE MAYRAN,278,,-99.18137261,19.44138341,CDMX
09016722511009602000000000U4,SEÑORITA AXIA,6-10,LAGO ISEO,258,,-99.18212803,19.44250411,CDMX
09016722514005241000000000U9,ASADOR 51,11-30,LAGO ISEO,258,220,-99.18212803,19.44250411,CDMX
09016722514007621000000000U0,TORTAS LOS CUÑADOS,0-5,GENERAL MARIANO ESCOBEDO,0,,-99.18311255,19.44378184,CDMX
09016722513004891000000000U4,TACOS Y GORDITAS MIKI,0-5,GENERAL MARIANO ESCOBEDO,0,,-99.18309869,19.44387305,CDMX
09016722511005921000000000U2,ANTOJAMBRE,0-5,ABELARDO L RODRIGUEZ,14,,-99.20452830,19.44843042,CDMX
09016722513003611000000000U7,COMIDA Y ANTOJITOS MEXICANOS,0-5,CALZADA DE LOS FILOSOFOS,71,0,-99.18722349,19.41789732,CDMX
09016722212002611000000000U7,COMIDA PARA LLEVAR,0-5,2,405,0,-99.20276296,19.44913107,CDMX
09016722516001202000000000U0,RYUHO SUSHI,6-10,LAGO MASK,166,0,-99.18489725,19.44569999,CDMX
09016722219005921010000000U2,ANTOJITOS MEXICANOS,0-5,AVENIDA HEROICO COLEGIO MILITAR,7,28,-99.18233705,19.42207389,CDMX
09016722514001281000000000U9,ANTOJITOS MEXICANOS SIN NOMBRE,0-5,LAGO KOLIND,72,,-99.19725046,19.45004416,CDMX
09016722219004751000000000U4,ANTOJITOS MEXICANOS,0-5,AVENIDA HEROICO COLEGIO MILITAR,301,14,-99.18228981,19.42208477,CDMX
09016722219004561000000000U7,FONDA EL MANA,0-5,LAGUNA DE TERMINOS,262,0,-99.18259988,19.44351127,CDMX
09016722212004691000000000U7,POLLOS ROSTIZADOS CARLITOS,0-5,TECAMACHALCO,144,1,-99.21541897,19.43123477,CDMX
09016722518004351000000000U8,COMIDA CORRIDA TRES HERMANOS,0-5,LAGO BOLSENA,185,,-99.18465602,19.44568347,CDMX
09016722518003141000000000U4,TORTAS EL PAISA,0-5,SIERRA NOAS,0,,-99.21541067,19.43067719,CDMX
09016722511008482000069500M2,ENO Y HERMANOS,6-10,1,415,,-99.20337740,19.44909784,CDMX
09016722511000035001002563S6,TOKS,0-5,LEGARIA,549,,-99.20643140,19.44773470,CDMX
09016722219005171000000000U4,FONDA KOLIND,0-5,LAGO KOLIND,79,0,-99.19746759,19.45018236,CDMX
09016722514007021000000000U3,MESTIZO,0-5,BAHIA DE SAN HIPOLITO,120,,-99.17894565,19.43668935,CDMX
09016722518004881000000000U4,COMIDA CORRIDA SIN NOMBRE,0-5,CALZADA DE LOS FILOSOFOS,77,,-99.18721489,19.41763458,CDMX
09016722219008531000000000U6,TOÑITA,0-5,AVENIDA HEROICO COLEGIO MILITAR,268,,-99.18203096,19.42214436,CDMX
09016722513002411000000000U1,QUESADILLAS,0-5,LAGO SILVERIO,267,,-99.18110810,19.44177788,CDMX
09016722514008211000000000U9,TORTAS LOS JEFITOS,0-5,CASA DE LA MONEDA,0,,-99.20721493,19.44735628,CDMX
09016722212003851000000000U8,COCINA LA FONDA DE TOÑITA,0-5,PRADO NORTE,465,118,-99.21458907,19.42681111,CDMX
09016722212004561000000000U2,COCINA ECONOMICA,0-5,PRADO NORTE,465,119,-99.21458907,19.42681111,CDMX
09016722212002131000000000U6,COCINA MI LUPITA,6-10,PRADO NORTE,465,114,-99.21458907,19.42681111,CDMX
09016722512001141000000000U9,OSTIONERIA PRADO NORTE,0-5,PRADO NORTE,465,20,-99.21458907,19.42681111,CDMX
09016722518004311000000000S2,BODEGA DE COCINA MARIA,0-5,PRADO NORTE,465,123,-99.21458907,19.42681111,CDMX
09016465914000591000000000U7,COCINA LA ECONOMICA,0-5,PRADO NORTE,465,115,-99.21459036,19.42680413,CDMX
09016722511008491000000000U3,BISTRO AL QUIJOTE,0-5,LAGO COMO,168,,-99.18389062,19.44514697,CDMX
09016722514007371000000000U2,TACOS DE GUSADO MAGUI,0-5,LAGO MURITZ,0,0,-99.18055193,19.44091664,CDMX
09016722511005902000000000U2,RESTAURANTE CIELITO LINDO,0-5,LEGARIA,474,0,-99.20385104,19.44906006,CDMX
09016811112000271010000000U6,UNA PIZCA DE SAZON,0-5,LAGUNA DE TERMINOS,270,0,-99.18226548,19.44346741,CDMX
09016722514006891000000000U0,VENTA DE TACOS GUISADO LA PRINCESA,0-5,TECAMACHALCO,148,0,-99.21561110,19.43106379,CDMX
09016722512001301000000000U9,MARISCOS VILLA DEL MAR,0-5,CASA DE LA MONEDA,,,-99.20731904,19.44740351,CDMX
09016722514002461000000000U6,PUESTO DE TACOS DE GUISADO LA MORE,0-5,LAGO MURITZ,0,0,-99.18052351,19.44102329,CDMX
09016722518002781000000000U8,REYNA NICOLAS REYES,0-5,CASA DE LA MONEDA,0,0,-99.20732681,19.44741565,CDMX
09016722514005101000000000U5,TACOS DE BISTEC,0-5,LAGO ISEO,,,-99.18193527,19.44330763,CDMX
09016722513000821000000000U5,ANTOJITOS MEXICANOS,0-5,AVENIDA HEROICO COLEGIO MILITAR,273,0,-99.18167561,19.42220574,CDMX
09016722516000861000000000U4,CALDOS EL CUÑAO,0-5,LAGO ISEO,0,,-99.18193008,19.44334329,CDMX
09016722518002771000000000U9,CHILAQUILITO TURIX,0-5,CASA DE LA MONEDA,,,-99.20748584,19.44749443,CDMX
09016722219009462001000000U3,RESTAURANTE LA CASA DE LAS ENCHILADAS,11-30,LAGO XOCHIMILCO,0,,-99.17929388,19.43881774,CDMX
09016722412001241000000000U0,RESTAURANTE BAR ESTACION SANTA JULIA,0-5,FERROCARRIL DE CUERNAVACA,0,,-99.18359570,19.44525070,CDMX
09016722516001741000000000U7,HAMBURGERS,0-5,LAGO XOCHIMILCO,0,0,-99.17928308,19.43889006,CDMX
09004722511001062010028206S5,OPERADORA Y ADMINISTRADORA DE RESTAURANTES GIGANTE,0-5,LEIBNITZ,117,,-99.17839880,19.42932765,CDMX
09016722513005461000000000U5,BIRRIA,0-5,CASA DE LA MONEDA,,,-99.20754263,19.44752256,CDMX
09016722511000343000000000U4,PANDA EXPRESS,0-5,LEIBNITZ,117,0,-99.17838414,19.42929246,CDMX
09016722212001831001000000U2,RESTAURANTE PUNTO Y COMA,0-5,LAGUNA DE TERMINOS,276,0,-99.18186531,19.44341527,CDMX
09016722514004381000000000U4,TORTAS GIGANTES EL TOXI,0-5,LAGO ALBERTO,,,-99.17910061,19.43850410,CDMX
09016722516001521000000000U3,HAMBURGERS,0-5,LAGO XOCHIMILCO,0,,-99.17926962,19.43898020,CDMX
09016722511000312001000000U9,OLIVO RESTAURANTE,6-10,LAGO ALBERTO,,,-99.17912622,19.43862438,CDMX
09016722514001921000000000U0,TACOS CABRERA,0-5,LAGO ERNE,0,0,-99.19437440,19.45045226,CDMX
09016722518003411000000000U1,QUESADILLAS Y GORDITASPATY Y CHARLY,0-5,CASA DE LA MONEDA,0,0,-99.20761836,19.44756007,CDMX
09016722518000171000000000U4,COMIDA CORRIDA,0-5,LAGO ALBERTO,,,-99.17902465,19.43848435,CDMX
09016722513002911000000000U2,TACOS Y HUARACHES,0-5,AVENIDA DE LOS COMPOSITORES,20,0,-99.19655774,19.41454702,CDMX
09016722219010952000000000U0,RESTAURANTE LA PARRILLA,0-5,LAGUNA DE MAYRAN,316,0,-99.18026769,19.44121903,CDMX
09016722513002391000000000U7,PUESTO DE ANTOJITOS MEXICANOS,0-5,LAGO ALBERTO,0,0,-99.17898667,19.43847448,CDMX
09016722511003763000000000U0,LA NUEVA DECIMA,11-30,VICTOR HUGO,108,0,-99.17897369,19.42676049,CDMX
09016722110001263000000000U4,RESTAURANT SIX 65,6-10,GENERAL MARIANO ESCOBEDO,665,0,-99.17914472,19.42627778,CDMX
09016722511005102000069194S9,RESTAURANTE GORDO KINGS COCINA ARTESANAL,0-5,GUTENBERG,177,,-99.17794637,19.43211770,CDMX
09016722513004741000000000U1,QUESADILLAS TOÑO,0-5,LAGO BOLSENA,,,-99.18378760,19.44564016,CDMX
09016722518003611000000000U6,ANTOJITOS MEXICANOS,0-5,CASA DE LA MONEDA,0,0,-99.20767515,19.44758821,CDMX
09016722511000493001000000S7,PAN COMIDO,6-10,DARWIN,117,0,-99.17819902,19.42955431,CDMX
09016722512001291000000000U2,LOS CEREZOS FISH,0-5,LAGO COMO,0,,-99.18380015,19.44567056,CDMX
09016722513001881010000000U8,EL TACO TORRO,0-5,LAGO ALBERTO,0,,-99.17893976,19.43846229,CDMX
09016611121000173000000000U7,COMIDA WOSHI WORKS LOS AUTENTICOS WORKS,0-5,FERROCARRIL DE CUERNAVACA,0,,-99.18345238,19.44536838,CDMX
09016722514008041000000000U0,TACOS DE GUISADO LAS CAZUELITAS,0-5,LAGO BOLSENA,0,,-99.18371126,19.44563063,CDMX
09016722513004841000000000U9,QUESADILLAS MARY,0-5,CASA DE LA MONEDA,,,-99.20772436,19.44761259,CDMX
09016722513004001000000000U0,LONCHERIA LA ESPECIAL,0-5,LAGO ERNE,45,0,-99.19444922,19.45058081,CDMX
09016722513004661000000000U1,CARNITAS EL GYM,0-5,LAGO COMO,0,,-99.18379048,19.44573396,CDMX
09016722511005421000000000U3,COCINA ELIZA,0-5,LAGO SILVERIO,233,0,-99.18098699,19.44254586,CDMX
09016722513000331000000000U5,ANTOJITOS MEXICANOS DANY,0-5,LAGO BOLSENA,0,0,-99.18365375,19.44562345,CDMX
09016722514003321000000000U1,TAQUERIA EL CHINO,0-5,LAGO COMO,0,,-99.18378489,19.44577066,CDMX
09016722511008934000000000U2,RESTAURANTE ZAGALA,31-50,MONTE ATHOS,185,,-99.21113441,19.42030245,CDMX
09016722517002341000000000S3,VENTA DE HAMBURGUESAS AL CARBON MAGIC PRIME,0-5,GENERAL MARIANO ESCOBEDO,716,,-99.17894443,19.42635471,CDMX
09016722518000831010000000U3,SUSHI KENJI,0-5,LAGO ALBERTO,0,,-99.17873869,19.43841002,CDMX
09016722514001831000000000U1,TACOS BOLSENA,0-5,LAGO BOLSENA,,,-99.18346342,19.44559969,CDMX
09016722517002261000000000U3,ROSTICERIA POLLAZO,0-5,LAGO BOLSENA,0,,-99.18337966,19.44552082,CDMX
09016722212002551000000000U5,COCINA ECONOMICA DON JOSE,0-5,SEGUNDA LAGO MURITZ,12,0,-99.18029619,19.44171671,CDMX
